store_name,store_number,address,address2,city,state,zip_code,country,phone_number,latitude,longitude,store_hours,other_fields,coming_soon
ULTA CULLMAN SHOPPING CENTER 1115,995620820,"1108 CULLMAN SHOPPING CENTER, NW",SUITE 1108,CULLMAN,AL,35055,US,,34.184101101276,-86.8503871563398,,,0
Sephora  Birmingham,-325782029,225 Summit Blvd Ste 1100,,Birmingham,AL,35243,US,205-969-4848,33.4476240385682,-86.7309022815866,,,0
Sephora  Riverchase Galleria,-325782055,"2000 Riverchase Galleria, Suite 259",,Hoover,AL,35244,US,205-403-9920,33.38009,-86.80686,,,0
JC Penney-SIJCP Tutwiler Farm,-325781543,5060 Pinnacle Square,,Trussville,AL,35173,US,205-655-5891,33.6054548316718,-86.6422151683282,,,0
ULTA BROOK HIGHLAND PLAZA 0336,995620813,5267 HIGHWAY 280,,BIRMINGHAM,AL,35242,US,,33.4184935869097,-86.6830464895939,,,0
ULTA TIGER TOWN 0379,995620815,2690 ENTERPRISE DRIVE,,OPELIKA,AL,36801,US,334-749-2593,32.6185110496621,-85.4083184575255,,,0
ULTA THE FORUM AT ASHLEY PARK 0226,995621122,338 NEWNAN CROSSING BYPASS,,NEWNAN,GA,30265,US,770-252-2268,33.3903413332312,-84.7626319386985,,,0
JC Penney- SIJCP Eastdale Mall,-710819810,1236 Eastdale Mall,,Montgomery,AL,36117-2154,US,334-272-2933,32.38296,-86.2068,,,0
JC Penney-SIJCP High Point S/C,-325781653,550 Pinnacle Pl,,Prattville,AL,36066,US,334-450-2274,32.46152,-86.39477,,,0
"ULTA GADSDEN, AL 0709",995620818,524 EAST MEIGHAN BOULEVARD,,GADSDEN,AL,35903,US,,34.0087837806286,-85.9855624547788,,,0
JC Penney- SIJCP University Mall,-710819478,1701 Macfarland Blvd E,,Tuscaloosa,AL,35404-5824,US,205-556-7860,33.1953234788673,-87.525926035331,,,0
JC Penney-SIJCP Albany Mall,-325781744,2601 Dawson Rd,,Albany,GA,31707,US,229-435-1401,31.614355,-84.217105,,,0
JC Penney- SIJCP Peachtree Mall,-710819618,3507 Manchester Expwy Ste E,,Columbus,GA,31909-6402,US,706-322-4035,32.5100265,-84.9398578,,,0
JC Penney- SIJCP Madison SQ,-710819704,5901 University Dr.,,Huntsville,AL,35806-5901,US,256-837-2011,34.7406369915443,-86.6652737712508,,,0
Sephora Huntsville,-325781638,335 The Bridge Street Suite 117,,Huntsville,AL,35806,US,256-327-8737,34.7139125268509,-86.6727918048935,,,0
Sephora Destin,-325781704,4236 Legacy Drive,,Destin,FL,32541,US,415-284-4477,30.39375,-86.45772,,,0
JC Penney- SIJCP University Mall,-710819479,7171 N Davis Hwy Ste. 8220,,Pensacola,FL,32504,US,850-478-4500,30.4989866666667,-87.2217516666667,,,0
Sephora Cordova Mall,-325781451,5100 N 9th Ave,,Pensacola,FL,32504,US,(850) 473-0083,30.474475,-87.211565,,,0
JC Penney-SIJCP Spanish Ft Town Ct,-325781909,22500 Town Center Ave,,Spanish Fort,AL,36527,US,251-625-4930,30.6608326012601,-87.9040237793779,,,0
JC Penney-SIJCP Bel Air Mall,-325781779,3400 Bell Air Mall,,Mobile,AL,36606,US,251-476-4560,30.6706509457688,-88.1229618411055,,,0
JC Penney-SIJCP Barnes Crossing,-325781462,1001 Barnes Crossing Rd Ste 300,,Tupelo,MS,38804,US,662-844-2660,34.31556,-88.70338,,,0
JC Penney-SIJCP Hamilton Place,-325781828,2100 Hamilton Place Blvd,,Chattanooga,TN,37421,US,423-894-2330,35.0369,-85.161,,,0
Sephora Chattanooga,-325781700,2100 Hamilton Place Blvd Suite 256,Suite 256,Chattanooga,TN,37421,US,423-893-6181,35.0369,-85.161,,,0
ULTA NORTHGATE MALL 1139,995621598,366 NORTHGATE MALL DR.,,CHATTANOOGA,TN,37415,US,404-355-1326,35.1278966362325,-85.2379267092746,,,0
JC Penney- SIJCP Turtle Creek,-710819485,1000 Turtle Creek Drive,Attn: Sijcp Beauty Leader,Hattiesburg,MS,39402,US,415-284-3644,31.32321,-89.37636,,,0
CK COLLECTION,-710767123,320 Fairhope Ave.,,Fairhope,AL,36532,US,251-990-9001,30.5230211388729,-87.9044067228283,,,0
JC Penney-SIJCP Hiram Square,-325781962,5043 Jimmy Lee Smith Pkwy,,Hiram,GA,30141,US,770-250-1860,33.88853375,-84.745385,,,0
ULTA THE BULLSEYE 1040,995621363,508 18TH AVE NORTH,,COLUMBUS,MS,39705,US,,33.5152040973638,-88.4312987505097,,,0
ULTA FAIRBANKS 0783,995620805,357 MERHAR AVE.,,FAIRBANKS,AK,99701,US,,64.8580458835533,-147.703127957017,,,0
Nordstrom Anchorage,-325781595,603 D Street,,Anchorage,AK,99501,US,907-279-7622,61.2165597959184,-149.8894,,,0
JC Penney-SIJCP 5TH Avenue Mall Sur,-325781626,406 W 5th Ave,,Anchorage,AK,99501,US,907-279-5656,61.2175606122449,-149.889526734694,,,0
Sephora Anchorage,-325781386,320 W. 5th Ave,,Anchorage,AK,99501,US,(907) 277-7700,61.2175679591837,-149.887760408163,,,0
ULTA TIKAHTNU SHOP CTR 0786,995620809,"1068 N. MULDOON ROAD, SUITE 100",,ANCHORAGE,AK,99504,US,,61.2311618791946,-149.741112281879,,,0
JC Penney-SIJCP Casa Grande Regional,-325781673,1041 N. Promenade Pkwy.,,Casa Grande,AZ,85194,US,520-836-1557,32.8825693,-111.685214,,,0
JC Penney -SIJCP Palm  Valley Cornerst,-325781423,13333 W Mcdowell Rd,,Goodyear,AZ,85395-2631,US,623-535-7063,33.4642234374402,-112.346000931221,,,0
JC Penney-SIJCP Arrowhead Town Ctr,-325781577,7750 W Arrowhead Towne Center,,Glendale,AZ,85308,US,623-412-1121,33.63964,-112.22635,,,0
Sephora  Arrowhead,-325782155,7700 W. Arrowhead Towne Ctr. 1199,#1199,Glendale,AZ,85308,US,623-334-8700,33.63964,-112.2246,,,0
JC Penney-SIJCP Christown Spectrum,-710819867,1727 W Bethany Home Rd,,Phoenix,AZ,85015,US,440-779-8800,33.5240732653061,-112.096180816327,,,0
JC Penney -SIJCP Paradise Valley Mall,-325781396,4510 E Cactus Rd,,Phoenix,AZ,85032-7790,US,602-996-2550,33.5999,-111.98593,,,0
Saks Fifth Ave Phoenix,-325782071,2446 East Camelback Road,,Phoenix,AZ,85016,US,602-955-8000,33.50951873614,-112.02795022176,,,0
Sephora Scottsdale Quarter,-325781586,15169 Scottsdale Rd. Suite   #110,,Scottsdale,AZ,85254,US,480-991-0915,33.624135,-111.925544347826,,,0
Nordstrom Scottsdale,-325782089,7055 East Camelback Road,Scottsdale Fashion Square,Scottsdale,AZ,85251,US,480-946-4111,33.50211,-111.929563333333,,,0
Sephora Scottsdale,-325782257,7014 East Camelback Road,Space 1049,Scottsdale,AZ,85251,US,480-945-0100,33.5023143474222,-111.928940431955,,,0
Barneys Scottsdale,-325781920,4500 N. Scottsdale Road,,Scottsdale,AZ,85251,US,602-337-6000,33.50228,-111.92625,,,0
JC Penney-SIJCP Tempe Marketplace,-325781675,1900 E. Rio Salado Pkwy,,Tempe,AZ,85281,US,480-829-3555,33.4293,-111.90477,,,0
JC Penney-SIJCP Shops at Lake Havasu,-325781864,5601 Hwy 95 North,,Lake Havasu City,AZ,86404,US,928-764-1800,34.56738,-114.36285,,,0
JC Penney-SIJCP Ahwatukee Foothill,-325781567,5050 E Ray Rd,,Phoenix,AZ,85044,US,480-785-5245,33.31994,-111.975420612245,,,0
Nordstrom Chandler,-325781515,3199 West Chandler Blvd,,Chandler,AZ,85244,US,480-855-2500,33.3056785185185,-111.897462222222,,,0
Sephora  Chandler,-325782185,Chandler Fashion Center 3111 W Chandler,"3111 W. Chandler Blvd., #1144",Chandler,AZ,85226,US,480-726-7733,33.3057113513513,-111.896554864865,,,0
JC Penney-SIJCP Mill Crossing,-325781917,2180 S Gilbert Rd,,Chandler,AZ,85286,US,318-448-3231,33.3115212244898,-111.78985,,,0
Sephora San Tan Village,-325782027,2206 E. Williams Field Road Ste #114,,Gilbert,AZ,85295,US,480-917-4555,33.30688,-111.743337171717,,,0
JC Penney -SIJCP Supserstn Springs Mall,-325781432,6525 E Southern Ave,,Mesa,AZ,85206-3711,US,480-832-0400,33.3938905714286,-111.690211714286,,,0
ULTA SURPRISE 0176,995620844,SURPRISE MARKETPLACE STORE,13707 WEST BELL ROAD,SURPRISE,AZ,85374,US,623-214-2779,33.63858,-112.35454,,,0
ULTA PEORIA 0228,995620850,10084 W. HAPPY VALLEY PARKWAY,,PEORIA,AZ,85383,US,623-825-2652,33.712172173913,-112.276757826087,,,0
ULTA PALM VALLEY PAVILIONS 0157,995620840,1450 N. LITCHFIELD,,GOODYEAR,AZ,85338,US,623-935-4186,33.4332713716935,-112.358281111632,,,0
ULTA GLENDALE 0159,995620842,PEORIA CROSSINGS STORE,9280 W. NORTHERN AVE,GLENDALE,AZ,85305,US,623-772-0733,33.5517111406958,-112.258667869902,,,0
"ULTA PRESCOTT VALLEY, AZ 1023",995620857,5683 E. STATE ROUTE 69,,PRESCOTT VALLEY,AZ,86314,US,,34.5847844,-112.3337377,,,0
ULTA DESERT RIDGE 0108,995620839,DESERT RIDGE SHOPPING CENTER,"21001 N. TSTUM BLVD., SUITE 72",PHOENIX,AZ,85050,US,480-502-4331,33.677943,-111.9768445,,,0
ULTA CAMELBACK 035,995620832,CAMELBACK COLONNADE SHOPPING CTR.,"1949 E. CAMELBACK RD., SUITE 146",PHOENIX,AZ,85016,US,602-264-0003,33.5092398,-112.0399748,,,0
BLUE MERCURY SCOTTSDALE,968106749,2021 E Camelback Rd. Ste D12,,Phoenix,AZ,85016,US,202-342-9800,33.5092543478261,-112.038478695652,,,0
ULTA VILLAGE FAIR 0037,995620834,VILLAGE FAIR NORTH SHOPPING CTR,12867 N. TATUM BLVD.,PHOENIX,AZ,85032,US,602-953-5009,33.6030712903226,-111.978255483871,,,0
Sephora Biltmore,451743335,Biltmore Fashion Park,2505 E. Camelback Rd.,Phoenix,AZ,85016,US,,33.51465,-112.01749,,,0
Sephora Biltmore,451743329,Biltmore Fashion Park,2505 E. Camelback Rd.,Phoenix,AZ,85016,US,,33.51465,-112.01749,,,0
BLUE MERCURY KIERLAND COMMONS,86394499,"15215 N. Kierland Blvd, Suite 155",,Scottsdale,AZ,85254,US,202-342-9800,33.62573,-111.928360073514,,,0
ULTA THE PROMENADE 0077,995620835,THE PROMENADE @FRANK LLOYD WRIGHT BLVD.,16231 N. SCOTTSDALE ROAD,SCOTTSDALE,AZ,85254,US,480-609-1009,33.6335159183673,-111.925390816327,,,0
ULTA SCOTTSDALE 033,995620830,SCOTTSDALE PAVILIONS,9019 E. INDIAN BEND ROAD,SCOTTSDALE,AZ,85250,US,480-905-1099,33.5384128985507,-111.887148985507,,,0
ULTA CASA PALOMA 0434,995620855,"7131 W. REY RD., SUITE 12",,CHANDLER,AZ,85226,US,,33.319792731079,-111.96594924316,,,0
ULTA CHANDLER FESTIVAL 0099,995620837,2680 W. CHANDLER BLVD.,,CHANDLER,AZ,85224,US,480-792-0457,33.305985687186,-111.889293387569,,,0
ULTA SHOPPES AT GILBERT COMMONS 0354,995620852,857 EAST BASELINE RD.,,GILBERT,AZ,85233,US,480-813-5985,33.37882,-111.813214285714,,,0
ULTA MESA 0225,995620849,SUPERSTITION GATEWAY STORE,1614 S. SIGNAL BUTTE ROAD,MESA,AZ,85209,US,480-357-8181,33.38684,-111.67319,,,0
ULTA GILBERT 0183,995620845,SAN TAN VILLAGE PHASE II,2779 SOUTH MARKET STREET,GILBERT,AZ,85296,US,480-726-3777,33.32846,-111.69557,,,0
JC Penney-SIJCP Tucson Spectrum,-325781654,5265 S Calle Santa Cruz,,Tucson,AZ,85706,US,520-917-3280,32.1560824,-110.9899874,,,0
Sephora  Tucson,-325781977,"4500 N. Oracle Road, Box 295",,Tucson,AZ,85705,US,520-888-3440,32.2888944594595,-110.978143378378,,,0
BLUE MERCURY LA ENCANTADA MALL,-710767160,2905 East Skyline Dr Space Ste 283,,Tucson,AZ,85718,US,520-529-9700,32.3228941723886,-110.931035034332,,,0
Sephora Park Place,-325781353,5870 East Broadway Blvd. Space #222,,Tucson,AZ,85711,US,(520) 790-3333,32.22151,-110.86712,,,0
NARS COSMETICS,-710767063,3500 South Las Vegas Blvd,,Las Vegas,NV,89109,US,702-749-1525,36.11736,-115.173,,,0
JC Penney-SIJCP Yuma Palms,-325781836,1375 S Yuma Palms Pkwy,,Yuma,AZ,85365,US,928-782-5782,32.7023826460274,-114.603673696595,,,0
ULTA RED ROCK COMMONS 0459,995621704,15 SOUTH RIVER ROAD SUITE #220,,ST GEORGE,UT,84790,US,,37.1081680457991,-113.554786286554,,,0
JC Penney-SIJCP Cottonwood Mall,-325781945,10000 Coors Bypass Nw,,Albuquerque,NM,87114,US,505-890-8727,35.19604,-106.65878,,,0
Sephora Alburquerque,-325781984,"6600 Menaul Ne, Space M1",,Albuquerque,NM,87110,US,505-816-0112,35.1085027,-106.573237,,,0
JC Penney-SIJCP Coronado Center,-325781948,6600 Menaul Blvd Ne Ste 600,,Albuquerque,NM,87110,US,505-883-5800,35.10904,-106.57095,,,0
ULTA QUEEN CREEK MARKETPLACE 0356,995620854,2118 S. ELLSWORTH LOOP RD,,QUEEN CREEK,AZ,85242,US,480-882-3454,33.25165,-111.63792,,,0
JC Penney-SIJCP River Landing,-325781683,3400 Rio Grande Ave,,Montrose,CO,81401,US,970-249-1988,38.44627,-107.86993,,,0
JC PENNEY-SIJCP MESA MALL 05595,-710819683,2424 Us 6th And 50th,,Grand Junction,CO,81505,US,970-242-6733,39.2158738,-108.8695476,,,0
JC Penney-SIJCP Galleria/Sunset,-325781605,1312 W Sunset Rd,,Henderson,NV,89014,US,702-451-4545,36.063815,-115.0410075,,,0
Sephora Town Square,-325781997,6671 Las Vegas Blvd. Town Square Space A,Town Square Space A-13,Las Vegas,NV,89119,US,702-361-3727,36.06747,-115.17659,,,0
ULTA STEPHANIE STREET POWER CNTR 1191,995621458,519 N. STEPHANIE STREET,,HENDERSON,NV,89014,US,,36.059103,-115.046313,,,0
ULTA SILVERADO RANCH 0100,995621451,SILVERADO RANCH PLAZA,9857 S. EASTERN AVENUE,LAS VEGAS,NV,89123,US,702-270-2410,36.0132,-115.18026,,,0
JC Penney-SIJCP Shackleford,-325781874,2600 S. Shackleford Rd,,Little Rock,AR,72205,US,501-224-0347,34.73223,-92.39486,,,0
Sephora  Little Rock,-325781968,"6000 Markham Street, Space 3130",Space # 3130,Little Rock,AR,72205,US,415-284-4477,34.75219,-92.34113,,,0
JC Penney-SIJCP Mc Cain Shop CTR,-325781558,3929 Mccain Blvd Ste 500,,North Little Rock,AR,72116,US,501-758-4800,34.7902188505747,-92.2269047126437,,,0
JC Penney-SIJCP Nature Coast,-325781669,Us 19 & Springhill Drive,,Spring Hill,FL,34608,US,352-683-4715,34.7808189,-92.2172407,,,0
ULTA LITTLE ROCK 0610,995620825,207 N. UNIVERSITY AVE SUITE #170,,LITTLE ROCK,AR,72201,US,,34.7527049234583,-92.34114,,,0
ULTA LAKEWOOD VILLAGE 0780,995620827,2743 LAKEWOOD VILLAGE DRIVE,,NORTH LITTLE ROCK,AR,72116,US,,34.7969232244881,-92.2319028719827,,,0
JC PEnney -SIJCP Mall at Turtle Creek,-325781399,3000 E Highland Dr Ste 516,,Jonesboro,AR,72401-6321,US,870-931-2127,35.82114,-90.66812,,,0
ULTA ULTA CENTER 0790,995620828,3031 E. HIGHLAND DRIVE,,JONESBORO,AR,72401,US,,35.82114,-90.6678851515152,,,0
JC Penney-SIJCP Central Mall,-325781804,5111 Rogers Ave,,Fort Smith,AR,72903,US,479-452-2420,35.3637203762791,-94.3746451834162,,,0
JC Penney-SIJCP NW Arkansas Mall,-325781617,4201 N Shiloh Dr,,Fayetteville,AR,72703,US,479-512-2771,36.12483,-94.14527,,,0
ULTA SPRING CREEK CENTRE 0417,995620821,3835 N. MALL AVENUE,SPACE # 2,FAYETTEVILLE,AR,72703,US,,36.1216616593406,-94.1498607906304,,,0
ULTA PINNACLE HILLS PLAZA 0419,995620823,2203 PROMENADE BLVD,SUITE 20240,ROGERS,AR,72758,US,,36.3052892335716,-94.1790040041691,,,0
JC Penney-SIJCP Southaven Town Center,-325781547,6620 Towne Center Loop Ste E,,Southaven,MS,38671,US,662-536-1428,34.9567422118627,-89.9969125709185,,,0
ULTA SOUTHHAVEN TOWNE CENTER 0670,995621362,6554 TOWNE CENTER CROSSING,,SOUTHAVEN,MS,38671,US,,34.9561458055428,-89.9931305613834,,,0
JC Penney-SIJCP Central Mall,-325781550,2400 Richmond Rd Ste 61,,Texarkana,TX,75503,US,903-832-1561,33.45439,-94.0841,,,0
JC Penney- SIJCP Pecanland Mall,-710819617,4761 Pecanland Mall Dr.,,Monroe,LA,71203-7000,US,318-387-9530,32.495694290333,-92.0601419608793,,,0
Sephora Wolfchase,-325782036,2760 N.Germantown Pkwy Unit2460,,Memphis,TN,38133,US,901-821-9900,35.2004993,-89.7877836,,,0
Sephora Battlefield,-325782160,2825 South Glenstone Ave Sp G07b,,Springfield,MO,65804,US,417-886-4646,37.1632707189025,-93.2627698325172,,,0
JC Penney-SIJCP Battlefield Mall,-325781805,2825 S Glenstone Ave Ste 200,,Springfield,MO,65804,US,417-883-4220,37.1632707189025,-93.2627698325172,,,0
ULTA TEXARKANA 1050,995621682,3347 MALL DRIVE,,TEXARKANA,TX,75503,US,,33.4583786939588,-94.081221318279,,,0
JC PENNEY-SIJCP PIERRE BOSSIER MAL 21238,-325781408,2950 E Texas Ave,,Bossier City,LA,71111-3236,US,318-747-6600,32.5286673469388,-93.705912244898,,,0
ULTA STIRLING BOSSIER 0468,995621246,2745 BENE BLVD,,BOSSIER CITY,LA,71111,US,,32.5597002990062,-93.7085385637554,,,0
Nordstrom Walnut Creek,-325782088,1200 Broadway Plaza,,Walnut Creek,CA,94596,US,925-930-7959,37.89761,-122.05895,,,0
Sephora Walnut Creek,-325782283,"1149 Broadway Plaza, Space C-70",,Walnut Creek,CA,94596,US,925-933-3433,37.8963221482845,-122.059251739582,,,0
JC PENNEY-SIJCP CONCORD,265560900,484 Sun Valley Mall,Attn: Sijcp Beauty Leader,Concord,CA,94520,US,925-687-6000,37.9671672848665,-122.062047151335,,,0
ULTA WILLOWS SHOPPING CENTER 0799,995620975,1975 DIAMOND BLVD,,CONCORD,CA,94520,US,,37.970575507803,-122.055170406242,,,0
JC Penney-SIJCP Weberstown,-325781839,4915 Claremont Ave,,Stockton,CA,95207,US,209-951-1110,37.9942640406103,-121.308940322457,,,0
ULTA LAGUNA GATEWAY 0110,995620859,NWC HWY. 99 & LUGUNA BLVD.,9141 WEST STOCKTON BLVD.,ELK GROVE,CA,95758,US,916-478-2610,38.42561,-121.40003,,,0
JC Penney-SIJCP Antelope Valley,-325781931,1131 W Rancho Vista Blvd,,Palmdale,CA,93551,US,661-947-3169,34.60186,-118.150445558575,,,0
"ULTA PALMDALE MARKETPLACE, LLC 0382",995620892,39246 10TH STREET WEST,,PALMDALE,CA,93551,US,,34.5959988888889,-118.14762,,,0
JC Penney-SIJCP Mall of Victor Valley,-325781469,14370 Bear Valley Road,,Victorville,CA,92392,US,415-284-3776,34.47041,-117.3492812,,,0
Sephora Calabasas,-325781355,"4799 Commons Way, Space# H1",,Calabasas,CA,91302,US,(818) 223-9481,34.15489,-118.64521,,,0
JC Penney-SIJCP Thousand Oaks Mall,-325781725,280 Hillcrest Dr W,,Thousand Oaks,CA,91360,US,805-497-6811,34.187263920968,-118.887859303666,,,0
Sephora The Oaks,-325782272,338 W. Hillcrest Drive,The Oaks,Thousand Oaks,CA,91360,US,805-370-9833,34.1874371513053,-118.888237878263,,,0
Nordstrom Thousand Oaks,-325781981,346 W. Hillcrest Drive,,Thousand Oaks,CA,91360,US,805-418-4500,34.1874584902514,-118.888291225629,,,0
Sephora Malibu,-325781582,3896 Cross Creek Road,,Malibu,CA,90265,US,(310) 317-6767,34.035820252868,-118.685383464306,,,0
Sephora Topanga,-325782274,6600 Topanga Canyon Blvd.,,Canoga Park,CA,91303,US,818-704-4600,34.1904633333333,-118.6059,,,0
Nordstrom Topanga,-325782096,21725 Victory Blvd.,,Canoga Park,CA,91303,US,818-884-7900,34.1876683783784,-118.601872432432,,,0
Sephora Westlake,81577370,The Promenade At Westlake,"140 Promenade Way, Suite Tbc",Westlake Village,CA,91362,US,,34.1587531235029,-118.821827405065,,,0
ULTA FALLBROOK SQUARE 0728,995620955,6605 N. FALLBROOK AVE.,,WEST HILLS,CA,91307,US,,34.1899929166667,-118.623397083333,,,0
JC PENNEY-SIJCP MT SHASTA MALL 02600,-710819668,950 Dana Dr,,Redding,CA,96003-4080,US,530-223-0100,40.58578,-122.35438,,,0
JC Penney-SIJCP Promenade Mall,-325781460,40640 Winchester Rd,,Temecula,CA,92591,US,951-296-5558,33.5276525,-117.15611,,,0
Sephora  Temecula,-325781969,40772 Winchester Road # 770,,Temecula,CA,92591,US,(951) 296-5558,33.5263942699702,-117.157788703118,,,0
ULTA COUNTRYSIDE MARKETPLACE 1049,995620985,30050 HAUN ROAD,,MENIFEE,CA,92584,US,,33.6841543558907,-117.175465332413,,,0
JC Penney-SIJCP Fresno Fashion Fa,-325781849,555 E Shaw Ave,,Fresno,CA,93710,US,559-224-8330,36.80848,-119.777861875,,,0
ULTA CLOVIS CROSSING 0635,995620935,1315 HERNDON AVENUE,,CLOVIS,CA,93611,US,,36.8375285714286,-119.693915714286,,,0
Sephora  Modesto,-325781970,"3401 Dale Road, Suite 658",Suite #658,Modesto,CA,95356,US,415-284-4477,37.68817,-121.04986,,,0
JC Penney-SIJCP Vintage Faire Mall,-325781609,3401 Dale Rd,,Modesto,CA,95356,US,209-527-5000,37.68817,-121.04986,,,0
ULTA CROSSROADS AT RIVERBANK 0784,995620968,2407 CLARIBEL RD.,,RIVERBANK,CA,95367,US,,37.7109873109244,-120.953039579832,,,0
ULTA VINTAGE COMMONS 0268,995620885,3900 SISK ROAD,SUITE B-2,MODESTO,CA,95356,US,,37.69121,-121.06225,,,0
ULTA MONTE VISTA CROSSINGS 0575,995620919,2841 COUNTRYSIDE DRIVE,,TURLOCK,CA,95380,US,,37.5162120882508,-120.878257275013,,,0
NARS COSMETICS,-710767064,2050 Fillmore Street,,San Francisco,CA,94115,US,415-757-2485,37.7884446938776,-122.433726938776,,,0
Sephora,-325782042,5626 Bay Street,,Emeryville,CA,94608,US,(510) 547-6200,37.8342346277893,-122.292217462779,,,0
Saks Fifth Avenue San Francisco,-325782061,384 Post Street,,San Francisco,CA,94108,US,415-438-5266,37.7883268421053,-122.408105263158,,,0
Bloomingdale's San Francisco,-325782150,845 Market Street,,San Francisco,CA,94103,US,415-856-5300,37.784695,-122.407163333333,,,0
Nordstrom San Francisco,-325782085,865 Market Street,,San Francisco,CA,94103,US,415-243-8500,37.7842995238095,-122.407671428571,,,0
Sephora Union Street,-325782278,2083 Union Street,,San Francisco,CA,94123,US,415-614-2704,37.7973342857143,-122.433572244898,,,0
ULTA EAST BAY BRIDGE 1007,995620978,3839 EMERY STREET,,EMERYVILLE,CA,94608,US,,37.8294675,-122.280623928571,,,0
ULTA PINOLE VISTA CROSSING 1051,995620986,1216 FITZGERALD DRIVE,,PINOLE,CA,94564,US,,37.9869066431395,-122.312424650974,,,0
Sephora Embarcadero,451743337,Two Embarcadero Center Street Level,,San Francisco,CA,94111,US,,37.794755,-122.39876,,,0
Sephora Embarcadero,451743327,Two Embarcadero Center Street Level,,San Francisco,CA,94111,US,,37.794755,-122.39876,,,0
BLUE MERCURY UNION SQUARE,81577375,170 O'Farrell Street,,San Francisco,CA,94102,US,202-342-9800,37.7864935294118,-122.407556470588,,,0
BLUE MERCURY CHESTNUT STREET,843761987,2060 Chestnut Street,,San Francisco,CA,94123,US,202-342-9800,37.80067125,-122.43741875,,,0
ULTA ALAMEDA SOUTH SHORE CENTER 0637,995620938,2245 SOUTH SHORE CENTER,,ALAMEDA,CA,94501,US,,37.7565761878055,-122.252240294315,,,0
JC Penney-SIJCP Coddingtown Ctr,-325781629,800 Coddingtown Ctr,,Santa Rosa,CA,95401,US,707-542-2014,38.4590970776256,-122.731295753425,,,0
Sephora Santa Rosa Plaza,-325781389,1071 Santa Rosa Plaza Space # 1019a,,Santa Rosa,CA,95401,US,(707) 541-0120,38.4396863749689,-122.717683929411,,,0
ULTA SANTA ROSE MARKETPLACE 0433,995620894,2080 SANTA ROSA AVE,,SANTA ROSA,CA,95407,US,707-542-1042,38.418693014917,-122.713555772049,,,0
Sephora  Pasedena,-325782241,13 W Colorado Blvd,,Pasadena,CA,91103,US,626-683-3100,34.145774,-118.150768,,,0
JC Penney-SIJCP Montebello Mall,-325781911,1600 Town Center Drive,,Montebello,CA,90640,US,323-727-7833,34.03667,-118.08724,,,0
Nordstrom Santa Anita,-325782093,"400 South Baldwin, #200",,Arcadia,CA,91007,US,626-821-6363,34.1353617171717,-118.054205858586,,,0
Sephora Santa Anita,-325782011,400 S. Baldwin Ave.,,Arcadia,CA,91007,US,(626) 445-0400,34.1353617171717,-118.054205858586,,,0
JC Penney-SIJCP Westfld Santa Anta,-325781607,400 S Baldwin Ave,,Arcadia,CA,91007,US,626-445-6454,34.1353617171717,-118.054205858586,,,0
Nordstrom Glendale,-325782097,102 Caruso Ave,,Glendale,CA,91210,US,818-502-9922,34.1436,-118.2563560601,,,0
Sephora Glendale Americana,-325781750,230 Americana Way,,Glendale,CA,91210,US,415-284-4477,34.1435521974761,-118.256675496658,,,0
Bloomingdales Glendale Galleria,-710767199,103 South Brand Blvd,,Glendale,CA,91204,US,,34.14617,-118.255088461538,,,0
JC Penney-SIJCP Glendale Galleria,-325781904,333 W Colorado St,,Glendale,CA,91210,US,818-240-8700,34.1425460526316,-118.259397631579,,,0
JC Penney-SIJCP Galleria @ Tyler,-325781464,3605 Galleria At Tyler,,Riverside,CA,92503,US,951-687-3060,34.1459944,-118.2591794,,,0
ULTA ROSEMEAD PLACE SHOPPING CTR 1110,995621002,3530 ROSEMEAD BLVD.,,ROSEMEAD,CA,91770,US,,34.0743167366491,-118.07296239095,,,0
ULTA HASTINGS VILLAGE 0143,995620866,3393 E. FOOTHILL BLVD.,,PASADENA,CA,91107,US,626-351-3297,34.1501175,-118.0798175,,,0
BLUE MERCURY SANTA ANITA,81577374,400 S. Baldwin Ave,,Arcadia,CA,91007,US,202-342-9800,34.1353617171717,-118.054205858586,,,0
ULTA AZALEA REGIONAL SHOPPING 0686,995620948,4681 FIRESTONE BLVD.,,SOUTH GATE,CA,90280,US,,33.9523288,-118.1872852,,,0
JC Penney-SIJCP Laguna Hills Mall,-325781728,24200 Laguna Hills Mall,,Laguna Hills,CA,92653,US,949-581-7700,33.61197,-117.70942,,,0
Sephora  Mission Viejo,-325782225,498 The Shops At Mission Viejo,,Mission Viejo,CA,92691,US,949-364-3449,33.5595098,-117.6702106,,,0
Nordstrom Mission Viejo,-325782099,100 The Shops At Mission Viejo,,Mission Viejo,CA,92691,US,949-347-2710,33.5615051,-117.6692117,,,0
Nordstrom Irvine Spectrum,-325782098,101 Fortune Drive,,Irvine,CA,92618,US,949-255-2800,33.6505609020962,-117.746457095715,,,0
Nordstrom Fashion Island,-325781526,9 Newport Center Dr,,Newport Beach,CA,92660,US,949-610-0700,33.61254,-117.87512,,,0
Bloomingdale's Newport Beach Fashion,-325782149,701 Newport Center Dr,,Newport Beach,CA,92660,US,949-729-6600,33.61913,-117.87601,,,0
ULTA THE ORCHARD AT SADDLEBACK 0467,995620900,23608 EL TORO RD. SUITE#M-2A,,LAKE FOREST,CA,92630,US,,33.6197675,-117.7013525,,,0
ULTA FASHION ISLAND 0620,995620933,427 NEWPORT CENTER DRIVE,,NEWPORT BEACH,CA,92660,US,,33.6144041521844,-117.872854428135,,,0
ULTA RANCHO SANTA MARGARITA CTR 0499,995620907,30682 SANTA MARGARITA PARKWAY,,RANCHO SANTA MARGARITA,CA,92688,US,949-635-9301,33.64355,-117.59584,,,0
ULTA NUT TREE PLAZA 0545,995620910,1641-C EAST MONTE VISTA AVE SUITE I-102,,VACAVILLE,CA,95688,US,,38.36811,-121.96149,,,0
ULTA AUBURN 1064,995620989,2795 BELL ROAD,,AUBURN,CA,95603,US,,38.9423914842912,-121.094292293232,,,0
ULTA ROCKLIN COMMONS 1105,995620998,5120 COMMONS DRIVE,,ROCKLIN,CA,95677,US,,38.80514,-121.20615,,,0
JC Penney-SIJCP Visalia Mall,-325781840,2115 S Mooney Blvd,,Visalia,CA,93277,US,559-732-4171,36.3116095945946,-119.313905405405,,,0
JC Penney-SIJCP Valley Plaza,-325781463,2501 Ming Ave.,,Bakersfield,CA,93304,US,661-835-7080,35.33938,-119.03006,,,0
Sephora Bakersfield,-325781990,27 Ming Ave Space 187,,Bakersfield,CA,93304,US,(661) 832-6300,35.33949,-119.00329409396,,,0
ULTA PACKWOOD CREEK WEST 0711,995620953,4023 S. MOONEY BLVD,,VISALIA,CA,93277,US,,36.2932282702703,-119.313701567568,,,0
ULTA THE MARKETPLACE AT HANFORD 0636,995620936,168 N. 12TH AVE.,,HANFORD,CA,93230,US,,36.3242003125,-119.6730140625,,,0
ULTA THE MARKETPLACE 0469,995620901,"9000 MING AVENUE, SUITE L2/3",,BAKERSFIELD,CA,93311,US,,35.33986,-119.103645366967,,,0
JC Penney- SIJCP Chico Mall,-710819869,1932 E 20th St,,Chico,CA,95928-6398,US,530-899-8160,39.72727,-121.80609,,,0
Nordstrom South Bay,-325782095,1835 Hawthorne Boulevard,,Redondo Beach,CA,90278,US,310-542-9440,33.8709088723255,-118.35271,,,0
Sephora Manhattan Beach,-325782222,3200 Sepulveda Boulevard,Manhattan Village Center,Manhattan Beach,CA,90266,US,310-546-8889,33.8976241052632,-118.395972157895,,,0
JC Penney-SIJCP Del Amo Center,-325781901,21840 S Hawthorne Blvd,,Torrance,CA,90503,US,310-371-6577,33.82843,-118.35199,,,0
JC Penney-SIJCP Fox Hills Mall,-325781897,6000 S Hannum Ave.,,Culver City,CA,90230,US,310-390-8966,33.987,-118.38981,,,0
ULTA SOUTH BAY SOUTH 0457,995620898,1513 HAWTHORNE BLVD,,REDONDO BEACH,CA,90278,US,310-303-3790,33.8676745,-118.35271,,,0
BLUE MERCURY THE POINTE,364750027,"840 S. Sepulveda Blvd, Ste B106",,El Segundo,CA,90245,US,202-342-9800,33.9037173386038,-118.396157501855,,,0
"ULTA COMPTON, CA 0798",995620973,1781 S. ALAMEDA ST,,COMPTON,CA,90220,US,,33.8790119927615,-118.217877683068,,,0
ULTA WESTFIELD CULVER CITY 0562,995620914,6000 SEPULVEDA BLVD,,CULVER CITY,CA,90230,US,,33.9853596468313,-118.395717597162,,,0
JC Penney-SIJCP Westfield Shopping,-325781810,355 Fletcher Pkwy,,El Cajon,CA,92020,US,619-444-3100,32.80757,-116.965926174497,,,0
Sephora Otay Ranch,-325782238,25 Birch Rd. Suite 605,,Chula Vista,CA,91915,US,619-482-4400,32.61759,-116.97922,,,0
IMPORTACIONES MUFEL S.A. DE C.V.,-325782344,Premier Brokerage Group/Pilot,2280 Enrico Fermi Dr. Suite23,San Diego,CA,92154,US,619-651-9200,32.5574307142857,-116.927842857143,,,0
JC Penney-SIJCP Plaza Bonita,-325781845,3040 Plaza Bonita Rd.,,National City,CA,91950,US,619-267-6000,32.6552564861778,-117.067665675535,,,0
JC Penney-SIJCP N County Fair Mall,-325781848,290 E Via Rancho Pkwy,,Escondido,CA,92025,US,760-480-4500,33.06799,-117.06304,,,0
Nordstrom Escondido,-325781590,270 East Via Rancho Parkway,,Escondido,CA,92025,US,(760) 740-0170,33.068292026132,-117.065554885116,,,0
JC Penney-SIJCP Chula Vista Center,-325781608,591 Broadway,,Chula Vista,CA,91910,US,619-427-1050,32.6277954545455,-117.088226363636,,,0
Bloomingdale's Fashion Valley,-325782146,7057 Friars Road,,San Diego,CA,92108,US,619-610-6400,32.7696075475821,-117.168456024956,,,0
Sephora Fashion Valley,-325782198,7007 Friars Road Suite 314,Suite 314,San Diego,CA,92108,US,619-220-0771,32.7694719924825,-117.169394533202,,,0
JC Penney-SIJCP Fashion Valley,-325781903,6987 Friars Road,,San Diego,CA,92108,US,619-291-6050,32.7693776541371,-117.16975448621,,,0
Nordstrom Fashion Valley,-325782091,270 Fashion Valley,,San Diego,CA,92122,US,619-295-4441,32.76429,-117.17016,,,0
JC PENNEY-SIJCP SOUTHGATE MAL 12708,-710819541,3939 S Carson St,,Carson City,NV,89701,US,775-884-3330,39.1309212121212,-119.770258,,,0
ULTA CARSON VALLEY PLAZA 0647,995621452,911 TOPSY LANE,,CARSON CITY,NV,89705,US,,39.1102434262465,-119.778990685609,,,0
ULTA WESTFIELD PARKWAY 0583,995620922,315 PARKWAY PLAZA,,EL CAJON,CA,92020,US,,32.807411875,-116.9674,,,0
ULTA OTAY RANCH TOWN CENTER 1114,995621005,"2015 BIRCH ROAD, STE 1801",,CHULA VISTA,CA,91915,US,,32.6211369219315,-116.966064657306,,,0
ULTA WESTFIELD MISSION VALLEY 0588,995620924,1072 CAMINO DEL RIO NORTH,,SAN DIEGO,CA,92108,US,,32.7657143844712,-117.154597140631,,,0
ULTA 4S COMMONS TOWN CENTER 1100,995620997,"10455 4S RESERVE DRIVE, SUITE #151",,SAN DIEGO,CA,92127,US,,33.0204541,-117.1133548,,,0
JC Penney-SIJCP Eastridge,-325781850,2230 Eastridge Loop,,San Jose,CA,95122,US,408-238-0300,37.3242167346939,-121.811556734694,,,0
Nordstrom Valley Fair,-325782086,2400 Forest Avenue,,San Jose,CA,95128,US,408-248-2180,37.32696,-121.94616,,,0
Sephora Valley Fair,-325782281,"2855 Stevens Creek Blvd., Suite 1067",,Santa Clara,CA,95050,US,408-248-7095,37.32345,-121.945868787879,,,0
Sephora  Oakridge,-325782025,925 Blossom Hill Road Suite #1198,,San Jose,CA,95123,US,408-224-7404,37.2504874435338,-121.863469989997,,,0
ULTA THE PLANT,995620886,31 CURTNER AVE,,SAN JOSE,CA,95125,US,408-924-0718,37.3030302453226,-121.862114632016,,,0
ULTA VILLAGE OAKS 0796,995620971,"5650 COTTLE ROAD, SUITE 20",,SAN JOSE,CA,95123,US,,37.2501475808069,-121.803920846777,,,0
JC Penney-SIJCP Sunrise Mall,-325781842,6100 Sunrise Blvd,,Citrus Hts,CA,95610,US,916-726-8811,38.67735,-121.27144,,,0
Nordstrom Roseville,-325782167,1131 Harding Blvd,,Roseville,CA,95678,US,916-780-7300,38.75172,-121.26834,,,0
JC Penney-SIJCP Roseville Galleria,-325781856,1125 Galleria Blvd,,Roseville,CA,95678,US,916-772-8800,38.7713485714286,-121.265891428571,,,0
Sephora Roseville,-325781916,"1151 Galleria Blvd., Suite 1140",,Roseville,CA,95678,US,916-786-6333,38.77212,-121.26588,,,0
JC Penney-SIJCP Arden Fair Mall,-325781696,1695 Arden Way,,Sacramento,CA,95815,US,916-564-0315,38.5995379591837,-121.42673755102,,,0
Sephora Arden Fair,-325782172,1689 Arden Way,Space # 1084,Sacramento,CA,95815,US,916-649-1010,38.5995948979592,-121.426853877551,,,0
Nordstrom Arden Fair,-325782084,1651 Arden Way,,Sacramento,CA,95815,US,916-646-2400,38.5999555102041,-121.427590612245,,,0
JC Penney-SIJCP Solano Mall,-325781632,1330 Travis Blvd,,Fairfield,CA,94533-4699,US,707-422-0320,38.2582,-122.0518775,,,0
Sephora Novato,-325782234,Vintage Oaks Shopping Center 208 Vintage,208 Vintage Way Space K3,Novato,CA,94945,US,415-878-2004,38.0891639619682,-122.555042283763,,,0
Nordstrom Corte Madera,-325781517,1870 Redwood Highway,,Corte Madera,CA,94925,US,(415) 927-1690,37.9314969994119,-122.51342862228,,,0
BLUE MERCURY CORTE MADERA,-710767172,1624 Redwood Highway,,Corte Madera,CA,94925,US,415-924-5400,37.9297458585859,-122.512061616162,,,0
JC Penney-SIJCP Northridge Mall,-325781797,100 Northridge Mall,,Salinas,CA,93906,US,831-449-8111,36.71693,-121.65539,,,0
JC Penney-SIJCP Santa Ana Main Pl,-325781910,2890 N. Main Street,,Santa Ana,CA,92705,US,714-953-9640,33.7780284615385,-117.867413076923,,,0
Nordstrom Santa Ana,-325781937,2820 North Main Street,,Santa Ana,CA,92705,US,714-972-2020,33.7769133333333,-117.867435238095,,,0
Sephora Anaheim,-325782194,1570 S Disneyland Drive Suite 1,Suite 101,Anaheim,CA,92802,US,714-758-1700,33.8084385714286,-117.924,,,0
Sephora Brea,-325782179,"2067b Brea Mall, Space 2067b",,Brea,CA,92821,US,714-674-0333,33.9129217028381,-117.886041101836,,,0
Nordstrom Brea,-325782100,500 Brea Mall Way,,Brea,CA,92822,US,714-529-0123,33.9160483930171,-117.888658784073,,,0
ULTA ANAHEIM PLAZA 1087,995620995,574 N. EUCLID STREET,,ANAHEIM,CA,92801,US,,33.8393813953488,-117.941594418605,,,0
JC PENNEY-SIJCP BREA,265560902,400 Brea Mall,Attn: Sijcp Beauty Leader,Brea,CA,92821,US,714-671-2882,33.91711,-117.88629,,,0
ULTA THE MARKET PLACE II 0736,995620958,13676 JAMBOREE ROAD,,IRVINE,CA,92602,US,,33.7244475674996,-117.790251621667,,,0
ULTA LA HABRA MARKETPLACE 1107,995621000,1521 W IMPERIAL HWY,,LA HABRA,CA,90631,US,,33.9173873053768,-117.963303471046,,,0
JC Penney-SIJCP The Orchard,-325781671,4951 Slatten Ranch Road,,Antioch,CA,94531,US,925-752-9405,37.9617756334842,-121.73704,,,0
ULTA STREETS OF BRENTWOOD 0353,995620889,2465 SAND CREEK ROAD,SUITE 100,BRENTWOOD,CA,94513,US,925-513-8183,37.94366,-121.738036842105,,,0
JC Penney- SIJCP Palm Desert,-710819627,72900 Hwy 11,,Palm Desert,CA,92260-3315,US,760-346-1511,33.7215805301355,-116.39298555064,,,0
Sephora Palm Desert,-325781752,73505 El Paseo Suite 1620,,Palm Desert,CA,92260,US,415-284-4477,33.7196935365854,-116.382029268293,,,0
ULTA DESERT CROSSING SHPNG CNTR 0520,995620909,72-369 HIGHWAY 111,,PALM DESERT,CA,92260,US,,33.73261,-116.40567,,,0
ULTA CAPITOLA 0743,995620960,"1855 41ST AVE., SUITE E10",,CAPITOLA,CA,95010,US,,36.9755345945946,-121.96502,,,0
ULTA BAYSHORE MALL 0645,995620940,"3300 BROADWAY, SUITE 15",,EUREKA,CA,95501,US,,40.77879,-124.18796,,,0
Sephora  San Luis Obispo,-325782254,"1090 Court St., Suite#205",,San Luis Obispo,CA,93401,US,805-783-2200,35.2810231895468,-120.661168123876,,,0
ULTA MADONNA PLAZA 1037,995620981,"281 MADONNA ROAD, SUITE #C",,SAN LUIS OBISPO,CA,93405,US,,35.2631263636364,-120.677546363636,,,0
Sephora Los Cerritos,-325782156,161 Los Cerritos Center,,Cerritos,CA,90703,US,(562) 860-4499,33.8637718367347,-118.093029285714,,,0
Nordstrom Cerritos,-325781768,600 Los Cerritos Center,,Cerritos,CA,90701,US,562-924-0940,33.85972,-118.09231,,,0
JC Penney-SIJCP Lakewood Ctr Mall,-325781886,67 Lakewood Center Mall,,Lakewood,CA,90712,US,562-634-7000,33.85045,-118.142303076923,,,0
JC Penney-SIJCP Stonewood S/C,-325781896,100 Stonewood Ct,,Downey,CA,90241,US,562-869-4541,33.93728,-118.12314,,,0
JC Penney-SIJCP Whittwood Center,-325781466,15740 Whittwood Lane,,Whittier,CA,90603,US,562-947-2511,33.9434981818182,-117.994076060606,,,0
Sephora Pleasanton,-325782245,2125 Stoneridge Mall,,Pleasanton,CA,94588,US,925-737-0616,37.695916414519,-121.931994830258,,,0
Nordstrom Stonridge,-325782083,1600 Stoneridge Mall Road,,Pleasanton,CA,94588,US,925-463-5050,37.6958390147092,-121.932004118235,,,0
JC Penney-SIJCP Stoneridge Mall,-325781898,1500 Stoneridge Mall Rd,,Pleasanton,CA,94588,US,925-463-9780,37.695694,-121.93201,,,0
ULTA BAYFAIR CENTER 1065,995620991,15555 E. 14TH STREET,,SAN LEANDRO,CA,94578,US,,37.7026320408163,-122.124937346939,,,0
ULTA PASO CROSSINGS 1063,995620988,2145 THEATRE DRIVE,,PASO ROBLES,CA,93446,US,,35.5855978867319,-120.696485177813,,,0
Sephora Stanford,-325782268,355 Stanford Shopping Center,,Palo Alto,CA,94304,US,650-327-5180,37.44224,-122.17312,,,0
Nordstrom Palo Alto,-325782087,550 Stanford Shopping Center,,Palo Alto,CA,94304,US,65-323-5111,37.43954,-122.17302,,,0
Bloomingdale's Stanford,-325781357,1 Stanford Shopping Center,,Palo Alto,CA,94304,US,(650) 463-2126,37.44315,-122.169645,,,0
Nordstrom Hillsdale,-325781518,130 Hillsdale Mall,,San Mateo,CA,94403,US,(650) 570-5111,37.5379127422721,-122.299863840514,,,0
ULTA SAN MATEO 0202,995620879,BRIDGEPOINTE SHOPPING CENTER STORE,3010 BRIDGEPOINT PKWY,SAN MATEO,CA,94404,US,650-638-1473,37.56367,-122.28255,,,0
JC Penney-SIJCP West Covina,-325781838,1203 Plaza Dr,,West Covina,CA,91790,US,626-960-3711,34.0699004329897,-117.927907061856,,,0
JC Penney-SIJCP Redlands Town CTR,-325781902,10000 Alabama Street,,Redlands,CA,92374,US,909-335-8111,34.0723147826087,-117.20875,,,0
JC PENNEY-SIJCP MORENO VALLEY MALL 24802,-325781430,22450 Town Cir,,Moreno Valley,CA,92553-7506,US,951-653-1055,33.9403458126086,-117.269035219782,,,0
Sephora  Riverside,-325781987,2077 Galleria At Tyler,,Riverside,CA,92503,US,(951) 785-0717,33.7726842,-117.2295299,,,0
ULTA MOUNTAIN GROVE @ CITRUS,995620970,27461 SAN BERNARDINO AVE,STE C,REDLANDS,CA,92374,US,817-238-2142,34.0773941642445,-117.203151438986,,,0
ULTA TOWNGATE SHOPPING CENTER 0697,995620950,12625 FREDERICK AVE. SUITE G-1,,MORENO VALLEY,CA,92553,US,,33.9363846938775,-117.261525102041,,,0
ULTA CAMINO REAL MARKETPLACE 0547,995620912,7000 MARKETPLACE DRIVE,,GOLETA,CA,93117,US,,34.42915,-119.873518461538,,,0
JC PENNEY- MEADOWOOD S/C  06544,-710819687,5200 Meadowood Mall Cir,,Reno,NV,89502-6594,US,318-448-3231,39.4766350122262,-119.782758881432,,,0
Sephora  Summit Reno,-325782250,"13915 S. Virginia Street, Suite 110",,Reno,NV,89511,US,775-853-9090,39.40636,-119.748521666667,,,0
ULTA RIDGEVIEW PLAZA 1166,995621457,"5110 MAE ANNE AVENUE, SUITE 601",,RENO,NV,89523,US,404-355-1326,39.5335472222222,-119.865822777778,,,0
NARS COSMETICS,-710767061,8412 Melrose Avenue,,West Hollywood,CA,90069,US,310-623-1730,34.0833,-118.37372,,,0
Barneys Beverly Hills,-325782301,9570 Wilshire Blvd.,,Beverly Hills,CA,90212,US,310-276-4400,34.06707,-118.40279,,,0
Saks Fifth Avenue Beverly Hills,-325782074,9600 Wilshire Boulevard,,Beverly Hills,CA,90212,US,(310) 275-4211,34.06707,-118.40346,,,0
Bloomingdale's Beverly Center,-325781358,8500 Beverly Blvd,,Los Angeles,CA,90048,US,(310)-360-2714,34.07606,-118.37661,,,0
Sephora Beverly Center,-325782178,8500 Beverly Blvd.,,Los Angeles,CA,90048,US,310-657-9670,34.07606,-118.37661,,,0
Violet Grey,-325781373,8091 Selma Ave,,Los Angeles,CA,90046,US,(323) 782-9700,34.09832,-118.36682,,,0
Nordstrom Farmers Market,-325782092,Farmers Market The Grove,,Los Angeles,CA,90036,US,(323) 930-2230,34.07299,-118.36143,,,0
NAIMIES,-710767066,Naimies,12640 Riverside Drive,Valley Village,CA,91607,US,818-655-9929,34.08814,-118.44017,,,0
Nordstrom Westside,-325782094,10830 West Pico Boulevard,,Los Angeles,CA,90064,US,(310) 470-6155,34.04012,-118.42847,,,0
Sephora Hollywood,-325782210,6801 Hollywood Blvd,Space B2-245,Hollywood,CA,90028,US,323-462-6898,34.10155,-118.33869,,,0
LARCHMONT BEAUTY CENTER,-710767102,208 N. Larchmont Blvd.,,Los Angeles,CA,90004,US,323-461-0162,34.0747654545455,-118.323634545455,,,0
Sephora Sherman Oaks,-325782197,"14006 Riverside Drive, Suite 75",,Sherman Oaks,CA,91423,US,818-817-0900,34.15761,-118.4383,,,0
BLUE MERCURY MONTANA AVE,-710767153,1402 Montana Ave,,Santa Monica,CA,90403,US,202-342-9800,34.0322766666667,-118.495083333333,,,0
Sephora Victoria Garden,-325782248,"Victoria Gardens, 12506 North Main Stree","Bldg. 3500, Suite 3510",Rancho Cucamonga,CA,91739,US,909-646-7299,34.10901,-117.52983,,,0
JC Penney-SIJCP Victoria Gardens,-325781857,12399 S Mainstreet,,Rancho Cucamonga,CA,91739,US,909-646-8911,34.1108138461538,-117.534893076923,,,0
NORDSTROMS,-710766943,1600 S Milliken Ave,Dc# 399,Ontario,CA,91761,US,310-752-2701,34.0440431794394,-117.558387851945,,,0
JC Penney - SiJCP San Bernardino,542763798,787 Inland Center Dr,,San Bernardino,CA,92408,US,415-284-3202,34.0863516666667,-117.299866666667,,,0
ULTA VICTORIA GARDENS 0158,995620871,"7905 KEW AVE., UNIT 5540",,RANCHO CUCAMONGA,CA,91739,US,909-646-7012,34.1103959722222,-117.531126944444,,,0
JC Penney-SIJCP Imperial Valley,-325781459,3351 S Dogwood,,El Centro,CA,92243,US,760-482-0092,32.7882442857143,-115.535524693878,,,0
ULTA SAN MARCOS 0244,995620883,GRAND PLAZA STORE,185 S. LAS POSAS DRIVE,SAN MARCOS,CA,92078,US,760-744-0853,33.14554,-117.19885,,,0
ULTA EL CAMINO 0135,995620864,EL CAMINO NORTH,2645 VISTA WAY,OCEANSIDE,CA,92054,US,760-439-2704,33.1832133333333,-117.330375555556,,,0
BLUE MERCURY LOS GATOS,86394501,11 North Santa Cruz Ave,,Los Gatos,CA,95030,US,202-342-9800,37.2231645833333,-121.98360625,,,0
Sephora Burlingame,-325782183,1205 Burlingame Ave,,Burlingame,CA,94010,US,650-347-6700,37.5791918367347,-122.346169183673,,,0
JC Penney-SIJCP Tanforan S/C,-325781855,1122 El Camino Real,,San Bruno,CA,94066,US,650-873-4100,37.6359146153846,-122.420674615385,,,0
JC Penney-SIJCP Plaza Camino Real,-325781793,2555 El Camino Real,,Carlsbad,CA,92008,US,760-729-7991,33.1788603630252,-117.326806156357,,,0
ULTA MARKETPLACE AT EL PASEO 0778,995620966,6587 NORTH RIVERSIDE DRIVE,,FRESNO,CA,93722,US,,36.66908,-120.20608,,,0
ULTA EDGEWATER ON MONTEREY BAY 0593,995620926,2080 CALIFORNIA AVENUE,,SAND CITY,CA,93955,US,,36.620984954995,-121.842254923024,,,0
Sephora Santa Barbara,-325782255,701 Paseo Nuevo,,Santa Barbara,CA,93101,US,805-962-5410,34.4186323829886,-119.698929042528,,,0
Nordstrom Santa Barbara,-325782166,17 West Canon Perdido,,Santa Barbara,CA,93101,US,805-564-8770,34.4203466666667,-119.700782222222,,,0
Sephora Ventura,-325781767,3301-1242 E. Main,,Ventura,CA,93003,US,415-284-4477,34.2669731003972,-119.250311770821,,,0
JC PENNEY-SIJCP PACIFIC VIEW MALL 26633,-325781429,377 Mills Rd,,Ventura,CA,93003-3437,US,805-642-7592,34.2690799320478,-119.246976295772,,,0
JC PENNEY-SIJCP VALENCIA TOWN CNTR 04655,-325781448,24140 Magic Mountain Pky,,Santa Clarita,CA,91355-3913,US,661-255-9864,34.41791,-118.55658,,,0
Sephora Valencia,-325781754,24201 West Valencia Blvd.,Suite # 3628,Valencia,CA,91355,US,415-284-4477,34.41319,-118.55739,,,0
ULTA RIVER OAKS SHOPPING CENTER 0474,995620903,24235 MAGIC MOUNTAIN PKWY,,VALENCIA,CA,91355,US,,34.4186329220632,-118.558625290171,,,0
JC Penney-SIJCP Rancho Del Chino,-325781859,14659 Ramona Ave.,,Chino,CA,91710,US,909-393-5099,33.9863156701031,-117.706448762887,,,0
Nordstrom Tyler,-325781974,3601 Tyler Mall,,Riverside,CA,92503,US,951-351-3170,33.9083590909091,-117.458388181818,,,0
ULTA CROSSING AT CORONA 0212,995620881,THE CROSSING AT CORONA,"2541 TUSCANY STREET, #103",CORONA,CA,92881,US,951-582-0833,33.8244878613666,-117.517715613913,,,0
ULTA TYLER GATEWAY 1153,995621008,"3502 TYLER STREET, #101",,RIVERSIDE,CA,92503-4176,US,,33.9067758593676,-117.457311376947,,,0
ULTA EASTVALE GATEWAY II 0663,995620945,"12423 LIMONITE AVENUE, SUITE 1",,EASTVALE,CA,91752,US,,33.9752735245185,-117.553610665477,,,0
Nordstrom Horton Plaza,-325781519,103 Horton Plaza,,San Diego,CA,92101,US,(619) 239-1700,32.7137873913044,-117.161055117057,,,0
Sephora Crystal Court,-325781388,"3333 Bear St, Suite# 213",,Costa Mesa,CA,92626,US,(714) 435-1001,33.69285,-117.89226,,,0
Sephora South Coast Plaza,-325782264,3333 Bristol Street,Suite 1001,Costa Mesa,CA,92626,US,714-429-9130,33.69022,-117.88563,,,0
Nordstrom South Coast Plaza,-325782101,3333 Bristol  Street,,Costa Mesa,CA,92626,US,714-549-8300,33.69022,-117.88563,,,0
Nordstrom La Jolla/Univ. Town,-325782090,4321 La Jolla Village Drive,,San Diego,CA,92122,US,858-457-4575,32.8726204634481,-117.213618387353,,,0
Sephora UTC,-325782280,4545 La Jolla Village Drive,Suite C16,San Diego,CA,92122,US,858-457-1983,32.87367,-117.20969,,,0
BLUE MERCURY DEL MAR HIGHLANDS,922301381,"12925 El Camino Real,Ste J-11",,San Diego,CA,92130,US,202-342-9800,32.9522511710461,-117.233879707238,,,0
ULTA LA JOLLA 0115,995620861,LA JOLLA VILLAGE SQUARE,8657 VILLA LA JOLLA DRIVE,LA JOLLA,CA,92037,US,858-202-0612,32.86793,-117.23129,,,0
BLUE MERCURY LA JOLLA,986098900,7802 Girard Ave,,La Jolla,CA,92037,US,202-342-9800,32.8451427777778,-117.273965,,,0
ULTA CLAIREMONT TOWN SQUARE 1112,995621003,4940 CLAIREMONT DRIVE,,SAN DIEGO,CA,92117,US,,32.8328866510176,-117.203416192889,,,0
JC Penney-SIJCP Promenade Shops,-325781872,1060 Perimeter Drive,,Manteca,CA,95337,US,209-923-6213,37.78292,-121.22688,,,0
ULTA FREMONT 0172,995620875,FREMONT HUB RETAIL CENTER STORE,39221 FREMONT HUB,FREMONT,CA,94538,US,510-796-1437,37.54396,-121.98527,,,0
ULTA THE BLOCK 0650,995620942,43806 PACIFIC COMMONS BLVD.,,FREMONT,CA,94538,US,,37.5014324161074,-121.970035234899,,,0
ULTA PACHECO PASS CENTER 0710,995620951,"950 RENZ LANE, SUITE 10",,GILROY,CA,95020,US,,37.0069842675284,-121.549360830821,,,0
ULTA ZINFANDEL SQUARE 1068,995620993,10919 OLSON DR.,,RANCHO CORDOVA,CA,95670,US,,38.5946456544843,-121.283779179113,,,0
ULTA JESS RANCH MARKETPLACE 0681,995620946,18821 BEAR VALLEY ROAD,,APPLE VALLEY,CA,92308,US,,34.4709663527,-117.25196305605,,,0
ULTA TRACY PAVILION II 0579,995620921,2475N. NAGLEE ROAD,,TRACY,CA,95304,US,,37.7578325,-121.4663527,,,0
JC Penney-SIJCP Northridge Fashion,-325781912,9301 Tampa Ave,,Northridge,CA,91324,US,818-885-1464,34.23911,-118.55356,,,0
Sephora  Northridge Fashion,-325781599,"Space # 118, 9301 Tampa Ave",,Northridge,CA,91324,US,415-284-4477,34.2393018,-118.5570537,,,0
Sephora  Park Meadows,-325782240,8505 Park Meadows Center,"8505 Park Meadows Center Dr., #2069",Littleton,CO,80124,US,303-799.4800,39.5611285948738,-104.890037497656,,,0
Nordstrom Park Meadows,-325782109,8465 Park Meadows Drive,,Littleton,CO,80124,US,303-799-3400,39.5615803554057,-104.89043158663,,,0
JC Penney-SIJCP Park Meadows Mall,-325781488,8417 S Park Meadows Center Dr,,Lone Tree,CO,80124,US,303-768-9130,39.562463677733,-104.872582045806,,,0
ULTA CORNERSTAR 0414,995621014,15800 E. BRIARWOOD CIRCLE,UNIT A,AURORA,CO,80016,US,303-680-6033,39.5929779532813,-104.802400945495,,,0
ULTA ASPEN GROVE 0774,995621017,"7301 SOUTH SANTA FE DR., STE 530",,LITTLETON,CO,80120,US,,39.58376,-105.02376,,,0
ULTA GARDENS ON HAVANA 1027,995621022,"1150 SOUTH IRONTON STREET, UNIT 110",,AURORA,CO,80012,US,,39.6956469452533,-104.86328885447,,,0
JC PENNEY-SIJCP AURORA MALL 11684,-325781415,14200 E Alameda Ave,,Aurora,CO,80012-2592,US,303-344-9901,39.711085050505,-104.822926565657,,,0
JC PENNEY-SIJCP SOUTHLANDS 29074,-325781344,6302 S Central St,Attn: Sijcp Beauty Leader,Aurora,CO,80016,US,303-693-8454,39.6023923529412,-104.70719,,,0
JC PENNEY-SIJCP PUEBLO MALL 06445,-710819596,3301 Dillon Drive,,Pueblo,CO,81008,US,719-544-3943,38.3039474334562,-104.606450200904,,,0
Sephora Colorado Springs,-325781584,"1645 Briargate Parkway, Suite 207",Suite 207,Colorado Springs,CO,80920,US,(719) 260-8686,38.965057970826,-104.796293353553,,,0
ULTA BRIARGATE 0133,995621012,THE SHOPS AT BRIARGATE,"1845 BRIARGATE PARKWAY, SUITE 380",COLORADO SPRINGS,CO,80920,US,719-548-9895,38.9647476911197,-104.792627328184,,,0
JC Penney-SIJCP Prairie Center,-325781650,1950 Prarie Center Pkwy,,Brighton,CO,80601,US,303-219-9392,39.9597268793061,-104.776116483478,,,0
Sephora Boulder,-325782051,1755 29th Street,,Boulder,CO,80301,US,415-284-3482,40.0180447577131,-105.255883078361,,,0
ULTA LAKEWOOD CITY 0095,995621010,LAKEWOOD CITY COMMONS,489 S. WADSWORTH BLVD.,LAKEWOOD,CO,80226,US,303-984-0202,39.7072008163265,-105.0815,,,0
ULTA BELLEVIEW SHORES 0429,995621015,5284 S. WADSWORTH BLVD,,LITTLETON,CO,80123,US,,39.6206946575342,-105.091096575342,,,0
ULTA WESTMINSTER CITY CENTER 0789,995621020,9320 SHERIDAN BLVD,,WESTMINSTER,CO,80031,US,,39.8659421148049,-105.05305,,,0
ULTA PLAZA SANTA FE 0664,995621446,3513 ZAFARANO BOULEVARD,,SANTA FE,NM,87507,US,,35.6417173056825,-106.012080656289,,,0
Nordstrom Broomfield Mall,-325782108,21 West Flatiron Circle,,Broomfield,CO,80021,US,720-887-0333,39.9292508879341,-105.131708638501,,,0
Sephora  Flatiron Crossing,-325782200,"One West Flat Iron Circle, 1008",,Broomfield,CO,80021,US,720-887-9655,39.9299,-105.13091,,,0
Sephora Fort Collin,-325781971,2720 Council Tree Ave. Suite #124,Suite #124,Fort Collins,CO,80525,US,866-394-5864,40.52552,-105.026477969757,,,0
JC Penney-SIJCP Fort Collins,-325781563,135 Bockman Dr,,Fort Collins,CO,80525,US,970-223-1481,40.5345288095238,-105.075916904762,,,0
ULTA CENTERPLACE OF GREELEY 1033,995621024,4126 CENTERPLACE DRIVE,,GREELEY,CO,80634,US,,40.39508,-104.746487501012,,,0
Nordstrom Cherry Creek,-325781753,2810 E. 1st Avenue,,Denver,CO,80206,US,720-746-2424,39.71803,-104.954948428571,,,0
Sephora  Cherry Creek,-325781935,3000 E First Ave Unit #236,,Denver,CO,80206,US,415-284-4477,39.71803,-104.95222,,,0
JC Penney-SIJCP Denver Ne,-325781676,8568 E 49th Ave,,Denver,CO,80238,US,303-576-6661,39.78547,-104.890240762146,,,0
ULTA SCHULMAN CROSSING 0525,995621212,1670 LARUE ROAD,,GARDEN CITY,KS,67846,US,404-355-1326,37.98331,-100.83553,,,0
JC Penney-SIJCP Orchards At Westminster,-325781566,14658 Delaware St,,Westminster,CO,80023,US,303-280-1120,39.9624629411765,-104.991515588235,,,0
JC Penney-SIJCP Colorado Springs,-325781891,3650 New Center Pt,,Co Spgs,CO,80922,US,719-550-4660,38.8838428571429,-104.717008571429,,,0
ULTA FIRST AND MAIN TOWN CENTER 0779,995621019,3153 CINEMA PT,,COLORADO SPRINGS,CO,80922,US,,38.8793609031023,-104.717495236093,,,0
JC Penney -SIJCP Conn Post Mall,-325781431,1201 Boston Post Rd,,Milford,CT,06460-2703,US,203-877-6177,41.23678,-73.03851,,,0
ULTA WESTFIELD CT POST MALL 0471,995621029,1201 BOSTON POST RD,,MILFORD,CT,06460,US,,41.23678,-73.03851,,,0
Sephora Mohegan Sun Mall,-325781637,"1 Mohegan Sun Blvd, Space # C-120",,Uncasville,CT,06382,US,860-886-0433,41.49254,-72.09596,,,0
JC PENNEY-SIJCP BRASS MILL CTR 26799,-325781428,525 Union St,,Waterbury,CT,06706-1246,US,203-575-1395,41.5475911709915,-73.0267799825239,,,0
Sephora  Farmington,-325781986,"110 Albany Turnpike, Suite 607",,Canton,CT,06019,US,806-693-8955,41.82422,-72.88482,,,0
Nordstrom Westfarms,-325781523,600 Westfarms Mall,,Farmington,CT,06032,US,(860) 321-2400,41.7240028040057,-72.7612383261803,,,0
Lord & Taylor Westfarms,-325782141,400 Westfarms Mall,,Farmington,CT,06032,US,860-521-8411,41.7239284120172,-72.7608949785408,,,0
JC Penney- SIJCP Westfarms Mall,-710819434,300 Westfarms Mall,,Farmington,CT,06032,US,330-633-7700,41.7238912160229,-72.760723304721,,,0
Sephora West Farms,-325782288,307 Westfarms Mall,Suite D114,Farmington,CT,06032,US,603-870-0005,41.7238938197425,-72.7607353218884,,,0
ULTA CONNECTICUT COMMONS 0768,995621032,242 NEW BRITAIN AVENUE,,PLAINVILLE,CT,06062,US,,41.67546,-72.83989,,,0
Sephora  Danbury Fair,-325782193,"7 Backus Avenue, Suite 364",,Danbury,CT,06810,US,(203) 778-3200,41.3785678126438,-73.4770495190095,,,0
ADAM BRODERICK RIDGEFIELD,-710767220,86 Danbury Road,,Ridgefield,CT,06877,US,203-431-4156,41.291,-73.4949,,,0
ULTA GUILFORD COMMONS 1074,995621034,1919 BOSTON POST ROAD,,GUILFORD,CT,06437,US,,41.3000981516427,-72.7083769305713,,,0
ULTA NORTH HAVEN COMMONS 0287,995621025,370 N. UNIVERSAL DRIVE,,N HAVEN,CT,06743,US,203-234-1489,41.3561197259372,-72.8718720003089,,,0
Lord & Taylor Trumbull,-325782123,5065 Main Street,,Trumbull,CT,06611,US,203-374-5700,41.2300685714286,-73.21987,,,0
Sephora Trumbull,-325781761,"Westfield Trumbull, 5065 Main Street",Space #2090,Trumbull,CT,06611,US,203-373-7344,41.2300685714286,-73.21987,,,0
BLUE MERCURY WESTPORT,-710767130,62 Main Street,,Westport,CT,06880,US,203-227-6900,41.1423045963942,-73.3616288764898,,,0
BLUE MERCURY RYE,-710767147,61 Purchase Street,,Rye,NY,10580,US,202-343-9800,40.9838128458439,-73.6848698325974,,,0
Sephora Greenwich Avenue,-325782209,75 Greenwich Avenue,,Greenwich,CT,06830,US,(203) 422-2191,41.0294487661164,-73.6264496915291,,,0
Nordstrom White Plains,-325781760,135 Westchester Avenue,,White Plains,NY,10601,US,914-946-1122,41.03254,-73.75873,,,0
Sephora Westchester,-325782289,"125 Westchester Ave., Suite 1001",,White Plains,NY,10601,US,(914) 761-7727,41.03248,-73.75976,,,0
Lord & Taylor Stamford,-325782137,110 High Ridge Road,,Stamford,CT,06905,US,203-327-6600,41.0747210645414,-73.5490395746501,,,0
Lord & Taylor  Westchester,-325782142,750 White Plains Road,,Scarsdale,NY,10583,US,914-723-7700,40.9725917244427,-73.8043230571868,,,0
ULTA PORT CHESTER SHOPPING 0594,995621474,445 BOSTON POST ROAD,,PORT CHESTER,NY,10573,US,,40.9942224461848,-73.6744623467492,,,0
Sephora Stamford,81577371,Stamford Town Center 100 Greyrock Place,,Stamford,CT,06901,US,,41.05359,-73.5361,,,0
Sephora Stamford,81577372,Stamford Town Center 100 Greyrock Place,,Stamford,CT,06901,US,,41.05359,-73.5361,,,0
Sephora  Evergreen Walk,-325781500,200 Evergreen Wy. Suite # 264,,South Windsor,CT,06074,US,860-648-4000,41.8116323424837,-72.5566277687042,,,0
ULTA PLAZA AT BUCKLAND HILLS 0435,995621027,1464 PLEASANT VALLEY RD,,MANCHESTER,CT,06040,US,,41.8044748375111,-72.5606172254767,,,0
BLUE MERCURY NEW CANAAN,-710767151,120 Main Street,,New Canaan,CT,06840,US,202-965-1300,41.146765,-73.492135,,,0
JC Penney-SIJCP Warwick Mall,-325781758,400 Bald Hill Road,,Warwick,RI,02886,US,401-739-7010,41.72653,-71.47996,,,0
Sephora Garden City,-325781364,Garden City Center Route 2,142 Hillside Road,Cranston,RI,02920,US,(401) 942-2166,41.7536,-71.46492,,,0
Nordstrom Providence Place,-325782082,6 Providence Place,11 Hays Street,Providence,RI,02903,US,401-621-3111,41.8276730150754,-71.4177798743719,,,0
Sephora Providence Place,-325782053,168 Providence Place,,Providence,RI,02903,US,401-270-8989,41.8277707035176,-71.4177758040201,,,0
BLUE MERCURY DARIEN,-710767171,1015 Post Road,,Darien,CT,06820,US,202-342-9800,41.0757948,-73.4716652,,,0
ULTA WESTFIELD MERIDEN 0690,995621030,470 LEWIS AVE. #61,,MERIDEN,CT,06451,US,,41.5504066158,-72.8036467963779,,,0
ULTA WATERFORD COMMONS 1135,995621035,"903 HARTFORD TURNPIKE, SPACE 26",,WATERFORD,CT,06385-4264,US,404-355-1326,41.3796497064691,-72.1504871068681,,,0
Sephora Worcester,-325781499,"70 Worcester-Providence,",Turnpike Space # 509,Millbury,MA,01527,US,(508) 865-6699,42.1954503208719,-71.7738581686835,,,0
ULTA THE CROSSING AT SMITHFIELD 0724,995621573,371 PUTNAM PIKE,,SMITHFIELD,RI,02917,US,,41.8702,-71.52197,,,0
ULTA NORTHBOROUGH CROSSING 0451,995621263,8106 SHOPS WAY,,NORTHBOROUGH,MA,01532,US,,42.2898027431028,-71.672622333678,,,0
JC Penney-SIJCP Poughkeepsie Gall.,-325781792,2001 South Rd (Rt 9),,Poughkeepsie,NY,12601,US,845-298-0572,41.62701,-73.91701,,,0
Sephora Poughkeepsie,-325781581,"2001 South Road, Space A208",,Poughkeepsie,NY,12601,US,(845) 297-5354,41.62701,-73.91701,,,0
JC Penney-SIJCP Holyoke Mall,-325781560,50 Holyoke St,,Holyoke,MA,01040,US,413-536-3963,42.1717925570598,-72.6402604650763,,,0
Sephora Holyoke,-325782022,"50 Holyoke Street, Space #c327",,Holyoke,MA,01040,US,(413) 536-7500,42.1717925570598,-72.6402604650763,,,0
JC Penney- SIJCP Prices Corner,-710819602,3236 Kirkwood Highway,,Wilmington,DE,19808-6130,US,302-998-1131,39.7371344288902,-75.6255912022145,,,0
ULTA CONCORD MALL 0086,995621037,4803 CONCORD PIKE,,WILMINGTON,DE,19803,US,302-479-9917,39.82349,-75.54594,,,0
Nordstrom Christiana Mall,-325781697,100 Christiana Mall,,Christiana,DE,19702,US,714-529-0123,39.67617,-75.65032,,,0
Sephora Christiana,-325781925,118 Christiana Mall,,Newark,DE,19702,US,(302) 738-9000,39.676341,-75.650176,,,0
JC Penney-SIJCP Christiana Mall,-325781556,606 Christiana Mall,,Newark,DE,19702,US,302-366-7680,39.6804564113733,-75.6491969277678,,,0
JC Penney-SIJCP Dover Mall,-325781552,1365 N Dupont Hwy Ste 5000,,Dover,DE,19901,US,302-674-4200,39.19111,-75.54296,,,0
BLUE MERCURY TROPICANA,-710767140,Brighton Ave & The Boardwalk,,Atlantic City,NJ,08401,US,609-347-7778,39.3546194,-74.4358379,,,0
Sephora  Gainesville,-325781932,6689 Newberry Road,,Gainesville,FL,32605,US,(352) 331-8880,29.6595770666667,-82.4146533333333,,,0
JC Penney-SIJCP Oaks Mall,-325781691,6480 Newberry Road,,Gainesville,FL,32605,US,352-331-2222,29.6596992654434,-82.4117033223218,,,0
ULTA OAKS SQUARE 0570,995621071,6843 WEST NEWBERRY ROAD,,GAINESVILLE,FL,32605,US,,29.6595719333333,-82.4159366666667,,,0
Sephora  City Place,-325782164,"550 S. Rosemary Ave, Suite 144",Suite 144,West Palm Beach,FL,33401,US,(561) 651-7633,26.7090602040816,-80.0571304081633,,,0
Saks Fifth Avenue Palm Beach,-325782062,172 Worth Avenue,,Palm Beach,FL,33480,US,561-833-2551,26.7007714285714,-80.0356730612245,,,0
JC Penney-SIJCP Wellington Green,-325781885,10308 W Forest Hill Blvd,,Wellington,FL,33414,US,561-333-3399,26.6510152729549,-80.207902729549,,,0
Nordstrom Wellington Green,-325781504,10320 West Forest Hills Boulevard,,Wellington,FL,33414,US,(561) 227-3000,26.6510377928139,-80.208127928139,,,0
JC Penney-SIJCP Boynton Beach Mall,-325781743,801 N Congress Ave,,Boynton Beach,FL,33426,US,561-736-8500,26.5350451677852,-80.0907101342282,,,0
ULTA WEST PALM BEACH CENTER 0781,995621096,"1855 PALM BEACH LAKES BLVD, STE B21",,WEST PALM BEACH,FL,33401,US,,26.7212646082636,-80.0877019392457,,,0
BLUE MERCURY UNION STATION,-710767138,50 Massachusetts Avenue,,Washington,DC,20002,US,202-342-9800,38.89685,-77.00638,,,0
BLUE MERCURY DUPONT,-710767168,1619 Connecticut Ave. Nw,,Washington,DC,20009,US,202-462-1300,38.9113548979592,-77.0442985714286,,,0
BLUE MERCURY GEORGETOWN,-710767164,"3059 M Street, N.W.",,Washington,DC,20007,US,202-965-1300,38.9051883333333,-77.0603483333333,,,0
Sephora Georgetown,-325782208,3065 M Street N.W.,,Washington,DC,20007,US,202-338-5644,38.9051870833333,-77.0604745833333,,,0
Sephora  Pentagon City,-325782243,"1100 S. Hayes Street, Suite F06a",,Arlington,VA,22202,US,703-415-4501,38.8642029009418,-77.0590931194977,,,0
Nordstrom Pentagon,-325782081,1400 South Hayes Street,Fashion Ctr. At Pentagon City,Arlington,VA,22202,US,703-415-1121,38.8614471621622,-77.0598635135135,,,0
BLUE MERCURY ARLINGTON,-710767183,2855 Claredon Blvd,,Arlington,VA,22201,US,856-810-7606,38.8881417693315,-77.0925341332691,,,0
JC Penney-SIJCP Prince Georges,-325781825,3500 East West Hwy Ste 1000,,Hyattsville,MD,20782,US,301-270-3400,38.96696,-76.95952,,,0
Lord & Taylor Washington,-325782139,5255 Western Avenue N.W.,,Washington,DC,20015,US,202-362-9600,38.95889,-77.08815,,,0
Sephora Chevy Chase,-325781934,"5330 Western Avenue, Suite E",,Chevy Chase,MD,20815,US,415-284-4477,38.9613285714286,-77.0850192857143,,,0
Bloomingdale's Chevy Chase,-325782033,5400 Wisconsin Avenue,,Chevy Chase,MD,20815,US,240-744-3700,38.96102,-77.08589,,,0
Blue Mercury Alexandria,-325781453,600 King Street,,Alexandria,VA,22314,US,202 342 9800,38.80492,-77.04586,,,0
BLUE MERCURY BETHESDA,-710767182,"7105 Bethesda Lane, Space D",,Bethesda,MD,20814,US,301-986-0070,38.9809093877551,-77.0977624489796,,,0
JC Penney-SIJCP Forest Village Prk,-325781623,3401 Donnell Dr,,Forestville,MD,20747,US,301-420-3400,38.8457809277019,-76.8848875393135,,,0
JC Penney-SIJCP Woodmore TN CTR,-325781748,9100 Mchugh Ste 576,,Lanham,MD,20706,US,301-341-2700,38.92014,-76.84811,,,0
SEPHORA        F STREET 1102,860742093,1000 F Street Nw,,Washington,DC,20004,US,415-284-1657,38.89736,-77.026,,,0
BLUE MERCURY CATHEDRAL COMMONS,202187761,"3302 Wisconsin Ave Nw, Suite A",,Washington,DC,20016,US,202-342-9800,38.933519,-77.07241,,,0
ULTA DOWNTOWN SILVER SPRING 0154,995621275,914 ELLSWORTH DRIVE,,SILVER SPRING,MD,20910,US,301-588-8744,38.996584137729,-77.0256688047863,,,0
ULTA WATERFORD LAKES 0152,995621042,WATERFORD LAKES TOWN CENTER,841 ALAFAYA TRAIL,ORLANDO,FL,32828,US,407-384-8488,28.55473,-81.19812,,,0
JC Penney-SIJCP Pier Park,81577367,206 Bluefish Dr.,,Panama City Beach,FL,32413,US,850-233-8423,30.2202925066403,-85.869832664163,,,0
JC Penney-SIJCP Altamonte Springs,-325781562,451 W Altamonte Dr Ste 1301,,Altamonte Springs,FL,32701,US,407-332-9600,28.6637019671493,-81.3787773281176,,,0
JC Penney- SIJCP Orlando Fashion SQ,-710819631,3115 E Colonial Drie,,Orlando,FL,32803,US,407-896-1006,28.55344,-81.34226,,,0
ULTA RENAISSANCE CENTRE,995621087,375 E. ALTAMONTE DRIVE,,ALAMONTE SPRINGS,FL,32701,US,817-238-2142,28.6630481437566,-81.3804909949318,,,0
Sephora Altamonte Mall,507344359,"451 East Altamonte Drive, Suite 2223",,Altamonte Springs,FL,32701,US,,28.6637019671493,-81.3787773281176,,,0
BLUE MERCURY WINTER PARK,86394502,102 N. Park Ave,,Winter Park,FL,32789,US,202-342-9800,28.5978291111111,-81.3510502222222,,,0
ULTA COLONIAL PLAZA 0706,995621080,2654 E. COLONIAL DR.,,ORLANDO,FL,32803,US,,28.5531509090909,-81.34942,,,0
ULTA MRKTPLC SEMINOLE TWN CNTR 0537,995621068,1751 WP BALL BLVD,,SANFORD,FL,32771,US,,28.8000158794477,-81.335789446628,,,0
JC Penney-SIJCP Governors Square,-325781829,1500 Apalachee Pkwy,,Tallahassee,FL,32301,US,850-878-8111,30.43444,-84.25493,,,0
Sephora Tallahassee,-325781537,"1500 Apalachee Pkwy., Space 1425",,Tallahassee,FL,32301,US,(850) 402-0105,30.43444,-84.25493,,,0
JC Penney-SIJCP Seminole Towne CTR,-325781718,310 Towne Center Circle,,Sanford,FL,32771-7410,US,407-323-1310,28.803125,-81.34113,,,0
ULTA LADY LAKE CROSSING 1189,995621107,460 US HWY. 27/441,,LADY LAKE,FL,32159,US,404-355-1326,28.9074539356847,-81.9169710311401,,,0
JC Penney-SIJCP Lakeland Sq,-325781727,3800 Us Hwy 98 N Ste 200,,Lakeland,FL,33809,US,863-858-7900,28.09174,-81.97401,,,0
ULTA MERCHANT'S WALK 0746,995621085,"3615 S. FLORIDA AVE, SUITE 320",,LAKELAND,FL,33803,US,,27.9986057142857,-81.9571157142857,,,0
ULTA LAKELAND PARK CENTER 0763,995621092,"919 LAKELAND PARK CENTER DR, STE 344",,LAKELAND,FL,33809,US,,28.090626,-81.9689146,,,0
JC PENNEY-SIJCP EDISON MALL 18622,-325781549,4125 Cleveland Ave Ste 903,,Fort Myers,FL,33901,US,239-936-8101,26.60208,-81.87177,,,0
Sephora,-325782035,23161 Fashion Drive,,Estero,FL,33928,US,(239) 390-9889,26.40187,-81.80696,,,0
ULTA BELL TOWER 0151,995621040,"13499 S. CLEVELAND AVE., SUITE 301",,FORT MYERS,FL,33907,US,239-334-0659,26.54637,-81.87144,,,0
ULTA CORALWOOD CENTER 1149,995621106,2301 DEL PRADO BLVD. SOUTH,,CAPE CORAL,FL,33990,US,404-355-1326,26.6094109756098,-81.9411385365854,,,0
JC Penney-SIJCP Tyrone SQ,-325781710,7000 Tyrone Sq,,Saint Petersburg,FL,33710,US,727-344-2611,27.7927008168102,-82.7334707652658,,,0
Sephora UTC Sarasota,-325781350,140 University Town Center Drive,Suite 279,Sarasota,FL,34243,US,(941) 702-9491,27.3850023,-82.4508276,,,0
Blue Mercury Sarasota,561891473,1500 Main Street,,Sarasota,FL,34236,US,732-745-7770,27.33649,-82.54069,,,0
ULTA UNIVERSITY TOWN CENTER 0282,995621054,103 N. CATTLEMAN RD,,SARASOTA,FL,34243-4743,US,941-360-8031,27.3861583306918,-82.4560650969158,,,0
Sephora Brandon,-325782046,910 Brandon Town Center Mall,,Brandon,FL,33511,US,(813) 651-1800,27.93296,-82.32831,,,0
JC Penney-SIJCP Brandon Town CTR,-325781742,331 Brandon Town Ctr Mall,,Brandon,FL,33511-4723,US,813-681-9800,27.93411,-82.3244,,,0
Sephora International Plaza,-325782212,2223 North West Shore Blvd. Internationa,International Plaza Space #145,Tampa,FL,33607,US,813-872-2600,27.9610504556887,-82.5238798481038,,,0
Nordstrom International,-325782079,2223 North West Shore Blvd,Suite# 300,Tampa,FL,33607,US,(813) 875-4400,27.9610504556887,-82.5238798481038,,,0
ULTA GULF VIEW SQUARE 0776,995621094,"9409 US HIGHWAY 19, STE 521A",,PORT RICHEY,FL,34668-4661,US,,28.2918159,-82.7138578,,,0
ULTA COASTAL LANDING 1096,995621104,7211 COASTAL BLVD,,BROOKSVILLE,FL,34613,US,,28.53537,-82.5048989709925,,,0
ULTA THE GROVE @ WESLEY CHAPEL 0253,995621051,5953 WESLEY GROVE BLVD.,,WESLEY CHAPEL,FL,33543,US,813-991-7220,28.2442713165657,-82.3521018981058,,,0
JC Penney-SIJCP Orange Park Mall,-325781952,1910 Wells Rd,,Orange Park,FL,32073,US,904-264-2772,30.1868520689655,-81.7360837931035,,,0
JC Penney-SIJCP The Avenues Center,-325781950,10308 Southside Blvd,,Jacksonville,FL,32256,US,904-363-1741,30.1819142372881,-81.5517816949152,,,0
Nordstroms Jacksonville,-325781348,4835 Town Crossing Dr.,,Jacksonville,FL,32247,US,(904) 672-2200,30.25549,-81.52726,,,0
BLUE MERCURY ST. JOHNS,-710767144,4742 River City Dr Space/Suite 119,,Jacksonville,FL,32246,US,904-565-0003,30.25687625,-81.52533125,,,0
Sephora St. Johns,-325782266,"10281 Midtown Pkwy, Space D7, Ste 167",,Jacksonville,FL,32256,US,904-997-1212,30.2580855,-81.526273,,,0
JC Penney-SIJCP Regency Squar Mall,-325781963,9501 Arlington Expy Ste 105,,Jacksonville,FL,32225,US,904-721-2820,30.32167,-81.55079,,,0
ULTA OAKLEAF TOWN DRIVE,995621056,9625 CROSSHILL BLVD.,,JACKSONVILLE,FL,32222,US,904-771-1162,30.1976939393939,-81.8274318181818,,,0
ULTA THE MARKETS AT TOWN CENTER 0377,995621061,4860 BIG ISLAND DRIVE,,JACKSONVILLE,FL,32246,US,904-641-6032,30.2546298899809,-81.530214175752,,,0
Nordstrom Aventura Mall,-325781701,"19507 Biscayne Blvd, Aventura Mall",,Aventura,FL,33180,US,561-627-9970,25.9560613863901,-80.1467688719024,,,0
JC Penney-SIJCP Aventura Mall,-325781771,19525 Biscayne Blvd,,Aventura,FL,33180,US,305-937-0022,25.9562264685126,-80.1467733288298,,,0
Sephora Aventura,-325782173,19575 Biscayne Bl. #669,,Aventura,FL,33180,US,305-931-9579,25.956672,-80.14678,,,0
Saks Fifth Avenue Bal Harbour,-325782065,9700 Collins Avenue,,Bal Harbour,FL,33154,US,(305) 865-1100,25.88895,-80.12406,,,0
ULTA AVENTURA COMMONS 0448,995621065,21065 BISCAYNE BLVD,,AVENTURA,FL,33180,US,305-466-1478,25.9705714247792,-80.1437280017697,,,0
ULTA PEMBROKE PINES 0161,995621047,PEMBROKE CROSSINGS STORE,11850 PINES BLVD,PEMBROKE PINES,FL,33026,US,954-438-6330,26.01395,-80.24824,,,0
JC Penney-SIJCP Posner Commons,-325781661,6200 Grand View Pkwy,,Davenport,FL,33837,US,614-846-1806,28.2329903003844,-81.6409200750961,,,0
Sephora Mall at Millenia,-325781381,"4200 Conroy Road, Space H-224",,Orlando,FL,32839,US,(407) 352-5102,28.4893876344086,-81.4294667741936,,,0
Bloomingdale's Orlando,-325781366,Millenia Blvd,,Orlando,FL,32839,US,407-264-2400,28.49418,-81.41826,,,0
Sephora Florida Mall,-325782201,8001 S. Orange Blossom Trail,"Space 1280, Florida Mall",Orlando,FL,32809,US,407-240-6634,28.44983,-81.40083,,,0
JC Penney-SIJCP The Florida Mall,-325781817,8001 S Orange Blossom Ste700,,Orlando,FL,32809,US,407-851-5200,28.44983,-81.40083,,,0
JC Penney-SIJCP Kissimmee Loopwest,-325781679,2001 W Osceola Pkwy,,Kissimmee,FL,34741,US,407-847-5922,28.3422799639983,-81.4250467852609,,,0
ULTA VILLAGE @ FLOWER GROVE,995621049,3203 DANIELS ROAD,,WINTER GARDEN,FL,34787,US,407-643-9129,28.5218618525751,-81.5874366885382,,,0
JC Penney-SIJCP Westfield Sarasota,-325781553,8201 S Tamiami Trail,,Sarasota,FL,34238,US,941-921-7911,27.23332,-82.49758,,,0
JC Penney-SIJCP Countryside Mall,-325781738,27001 Us Hwy 19 N,,Clearwater,FL,33761,US,727-796-2191,28.0178096116505,-82.7376247572816,,,0
ULTA CLEARWATER MALL 0531,995621066,2683 GULF TO BAY BLVD SPACE #37,,CLEARWATER,FL,33759,US,,27.9604872864428,-82.7274183914166,,,0
ULTA DIMOND CENTER 1162,995620811,40960 US HWY 19 N,,ANCHORAGE,AK,99515,US,404-355-1326,28.017471,-82.7334601,,,0
JC PENNEY-SIJCP OCALA,265560901,3100 Sw College Rd,Attn: Sijcp Beauty Leader,Ocala,FL,34474,US,352-237-4151,29.1601837322477,-82.1749414102012,,,0
JC Penney-SIJCP Volusia Mall,-325781559,1700 W Intl Speedway,,Daytona Beach,FL,32114,US,386-255-0971,29.1968329,-81.0636192,,,0
JC PENNEY-SIJCP COASTLAND S/C 21329,-325781434,2076 9th St N,,Naples,FL,34102-4895,US,239-261-6010,26.1727285438524,-81.7995201720239,,,0
Saks Fifth Avenue Naples,-325782059,5395 Tamiami Trail North,,Naples,FL,34108,US,(239) 592-5900,26.2128741176471,-81.8005617647059,,,0
Nordstrom Waterside Shops,-325781503,"5415 Tamiami Trail N, Suite An-2",,Naples,FL,34108,US,(239) 325-6100,26.2132644680851,-81.8005708510638,,,0
Sephora Dadeland,-325782191,7407 N Kendall Drive,,Miami,FL,33156,US,305-740-3445,25.6887746,-80.3120846,,,0
Nordstrom Dadeland Mall,-325782078,7239 N Kendall Drive,,Miami,FL,33156,US,(786) 709-4100,25.6887860416667,-80.3115420833333,,,0
JC Penney-SIJCP Dadeland Mall,-325781690,7201 N Kendall Dr,,Miami,FL,33156,US,305-666-1911,25.68879,-80.31136,,,0
CREAM,-710767112,5731 Sw 73rd Street,,South Miami,FL,33143,US,305-669-9220,25.703495,-80.28598875,,,0
Sephora Miami,-325781641,"1455 Nw 107th Ave., Unit 292b",,Miami,FL,33172,US,415-284-4477,25.78712,-80.36866,,,0
JC Penney-SIJCP Miami International Mall,-325781947,1603 Nw 107th Avenue,,Miami,FL,33172,US,305-477-1786,25.78795,-80.36868,,,0
Nordstrom Village of Merrick Park,-325781505,4310 Ponce De Leon Boulevard,,Coral Gables,FL,33146,US,(786) 999-1313,25.7321589795918,-80.2584169387755,,,0
JC Penney-SIJCP Westland Mall,-325781953,1655 W 49th Street Ste. 1200,,Hialeah,FL,33012,US,305-823-9880,25.8666532486874,-80.3166158362795,,,0
Nordstrom Boca,-325781759,5820 Glades Rd,,Boca Raton,FL,33431,US,(561) 620-5555,26.3685496503496,-80.1360745454545,,,0
Bloomingdale's Boca Raton,-325782152,5840 Glades Road,,Boca Raton,FL,33431,US,561-394-2000,26.3685552447552,-80.1362018181818,,,0
Sephora Town Center,-325782275,"6000 W. Glades Road, Suite 1024b",,Boca Raton,FL,33431,US,561-391-1221,26.3686,-80.13722,,,0
Lord & Taylor Boca Raton,-325781380,200 Plaza Real,,Boca Raton,FL,33431,US,561-394-5656,26.3528394949495,-80.0850301010101,,,0
ULTA DEERFIELD MALL 1003,995621097,3820 W HILLSBORO BLVD.,,DEERFIELD BEACH,FL,33442,US,,26.3177635313904,-80.1578126344815,,,0
ULTA WESTWINDS OF BOCA 0578,995621073,9882 GLADES ROAD,,BOCA RATON,FL,33434,US,,26.3678178281462,-80.2013049187941,,,0
ULTA THE PLAZA AT DELRAY 0731,995621084,1636 S. FEDERAL HWY,,DELRAY BEACH,FL,33483,US,,26.4405477876567,-80.0708081415622,,,0
JC PENNEY-SIJCP POMPANO BEACH,265560903,1600 Ne 23rd St,Attn: Sijcp Beauty Leader,Pompano Beach,FL,33062,US,954-946-1600,26.2590335,-80.1012355,,,0
Sephora  Ft. Lauderdale,-325782206,The Galleria@ Ft.Lauderdale,2414 E Sunrise Blvd. Space 2204,Fort Lauderdale,FL,33304,US,954-630-3636,26.1378171428571,-80.1145685714286,,,0
JC Penney-SIJCP Broward Mall,-325781622,8000 W Broward Blvd Ste 900,,Plantation,FL,33388,US,954-472-2500,26.12074,-80.254615,,,0
JC Penney-SIJCP Coral Square Mall,-325781740,9303 W Atlantic Blvd,,Coral Springs,FL,33071,US,954-752-8116,26.239468896608,-80.2503667005121,,,0
ULTA BAL HARBOUR SQUARE 0385,995621063,1746 NORTH FEDERAL HIGHWAY,,FORT LAUDERDALE,FL,33305,US,,26.15076,-80.11928,,,0
ULTA TOWER SHOPS 0581,995621075,1950 S. UNIVERSITY DRIVE,,DAVIE,FL,33324,US,,26.0962850242799,-80.2510969704895,,,0
ULTA THE LANDING AT TRADITION 0272,995621053,10740 SW VILLAGE PARKWAY,,PORT ST LUCIE,FL,34987,US,,27.2678525399655,-80.4296717460035,,,0
"ULTA STUART, FL 0538",995621070,2455 NW FEDERAL HIGHWAY,,STUART,FL,34994,US,,27.2344941322314,-80.2680471900827,,,0
ULTA TREASURE COAST PLAZA 0754,995621089,423 21ST STREET,,VERO BEACH,FL,32960,US,,27.6397134782609,-80.3826147826087,,,0
Sephora  The Gardens,-325782271,3101 Pga Boulevard #229,,Palm Beach Gardens,FL,33410,US,561-622-1057,26.8450634782609,-80.0843293478261,,,0
Nordstrom The Gardens Mall,-325782076,3101 Pga Boulevard,,Palm Beach Gardens,FL,33410,US,(561) 340-2100,26.8450634782609,-80.0843293478261,,,0
ULTA PGA PLAZA 0615,995621078,2568 PGA BOULEVARD,,PALM BEACH GARDENS,FL,33410,US,404-355-1326,26.8446285714286,-80.0745228571429,,,0
ULTA SEABRIDGE SQUARE 0717,995621082,1783 US HIGHWAY 1 S,,ST AUGUSTINE,FL,32084-4238,US,,29.9094631,-81.3218329,,,0
JC PENNEY-SIJCP MERRIT SQUARE MALL 13219,-325781412,777 E Merritt Isl Cswy Ste 210,,Merritt Island,FL,32952-3575,US,321-452-6811,28.3571,-80.68571,,,0
JC Penney- SIJCP Citrus Park Mall,-710819863,8102 Citrus Park Town Ctr,,Tampa,FL,33625,US,813-926-4380,28.0668270351759,-82.5763148241206,,,0
Sephora Citrus Park Mall,-325781636,7965 Citrus Park Town Center,,Tampa,FL,33625,US,813-920-6200,28.0665496482412,-82.576515879397,,,0
ULTA COCOPLUM VILLAGE SHOPS 0758,995621091,18395 TAMIAMI TRAIL,,NORTH PORT,FL,34287,US,,27.0358360974627,-82.2126793197377,,,0
JC Penney-SIJCP Wiregrass Commons,-325781943,28151 State Road 56,,Wesley Chapel,FL,33543,US,813-907-7266,28.18615,-82.35048,,,0
JC Penney-SIJCP Pembroke Lakes,-325781820,11401 Pines Blvd,,Pembroke Pines,FL,33026,US,954-433-2445,26.00784,-80.30025,,,0
Sephora Pembroke Gardens,-325781995,516 Sw 145th Terrace,,Pembroke Pines,FL,33027,US,415-284-3331,26.0037209740159,-80.33692,,,0
ULTA KENDALLGATE SHOPPING CTR 0160,995621045,12054 SW 88TH STREET,,MIAMI,FL,33186,US,305-598-2440,25.6859941176471,-80.3933282352941,,,0
JC Penney -SIJCP Valdosta Mall,-325781371,1700 Norman Dr,,Valdosta,GA,31601-3698,US,229-244-4150,30.84164,-83.31891,,,0
"ULTA VALDOSTA, GA 1042",995621136,1700 NORMAN DRIVE,,VALDOSTA,GA,31601-7415,US,,30.84164,-83.31891,,,0
JC Penney-SIJCP Melbourne Square,-325781489,1700 W New Haven Ave.,,Melbourne,FL,32904,US,321-727-0923,28.07894,-80.64912,,,0
Sephora South Beach,-325782263,721 Collins Avenue,,Miami Beach,FL,33139,US,305-532-0904,25.7771610204082,-80.1324428571428,,,0
BROWNES & CO,-710767125,1688 Jefferson Ave,,Miami Beach,FL,33139,US,305-532-8703,25.7917248309362,-80.1377036295328,,,0
ULTA PAVILLION AT PORT ORANGE 0364,995621059,5511 S. WILLIAMSON BLVD,,PORT ORANGE,FL,32128,US,,29.1096927993314,-81.0371468620846,,,0
ULTA SOUTH BEACH REGIONAL 1010,995621099,"3928 3RD STREET SOUTH, STE 26-30",,JACKSONVILLE BEACH,FL,32250,US,,30.2577435294118,-81.3879252941176,,,0
Sephora  Kennesaw,-325781924,400 Barratt Pkwy Suite #238,,Kennesaw,GA,30144,US,770-426-1418,34.018009,-84.5642655,,,0
JC Penney-SIJCP Town Center Mall,-325781927,400  Ernest W Barrett Pkwy Nw,,Kennesaw,GA,30144,US,770-514-7101,34.0140038361461,-84.5612855778255,,,0
ULTA BARRETT PAVILION 025,995621111,BARRETT PAVILION,680 BARRETT PARKWAY,KENNESAW,GA,30144,US,770-419-2755,34.0081252059182,-84.5708358053692,,,0
ULTA WOODSTOCK 0105,995621116,WOODSTOCK SHOPPING CTR,,WOODSTOCK,GA,30189,US,678-494-0081,34.1267733,-84.5711001,,,0
ULTA STATESBORO CROSSING 1142,995621138,12551 JEFFERSON AVE.,,STATESBORO,GA,30458-2769,US,404-355-1326,32.42244,-81.80272,,,0
JC Penney-SIJCP South Point,-325781888,1380 Hwy 20 West,,Mcdonough,GA,30253,US,770-957-0321,33.4240784643185,-84.1847324765057,,,0
JC Penney-SIJCP @ Stonecrest,-325781726,8040 Mall Pkwy,,Lithonia,GA,30038,US,770-484-5604,33.6936294988903,-84.0963159911224,,,0
ULTA SOUTH POINT 0587,995621131,1560 HIGHWAY 20 WEST,,MCDONOUGH,GA,30253,US,,33.4207,-84.189095,,,0
JC Penney-SIJCP Oglethorpe Mall,-325781490,7804 Abercorn St,,Savannah,GA,31406,US,912-355-4000,32.0059705798227,-81.1162880744377,,,0
ULTA ABERCORN COMMON 0222,995621119,8108 ABERCORN STREET,,SAVANNAH,GA,31406,US,912-920-3316,32.0029698361554,-81.1236394014193,,,0
BLUE MERCURY SAVANNAH,274121132,110 Broughton Street,,Savannah,GA,31401,US,202-342-9800,32.0792685714286,-81.0931812244898,,,0
ULTA GLYNN ISLES MARKET 0447,995621126,190 GLYNN ISLES,,BRUNSWICK,GA,31525,US,,31.2008419185864,-81.480457279899,,,0
JC Penney-SIJCP North Point Mall,-325781555,2000 N Point Cir,,Alpharetta,GA,30022,US,770-475-9850,34.05058,-84.29574,,,0
THE COSMETIC MARKET ALPHARETTA,-710766904,3130 Avalon Blvd.,,Alpharetta,GA,30009,US,678-894-4012,34.06345,-84.24849,,,0
Sephora North Point,-325782228,"1000 North Point Circle, Space  Number",Space Number 1034,Alpharetta,GA,30022,US,770-475-4878,34.048053592233,-84.2983794174757,,,0
BLUE MERCURY NORTH POINT,487156330,5000 North Point Circle,,Alpharetta,GA,30022,US,202-342-9800,34.04589,-84.29757,,,0
ULTA THE FORUM ON PEACHTREE 0528,995621127,5145 PEACHTREE PKWY # 440,,PEACHTREE CORNERS,GA,30092,US,,33.9816504025916,-84.21505858108,,,0
Sephora Georgia,-325781993,3333 Buford Drive,,Buford,GA,30519,US,770-614-3499,34.06898,-83.98531,,,0
JC Penney-SIJCP Mall Of Georgia,-325781736,3333 Buford Dr,,Buford,GA,30519,US,770-831-0252,34.06898,-83.98531,,,0
Nordstrom Mall of Georgia,-325781506,3333 Buford Drive,,Buford,GA,30519,US,(678) 546-1122,34.06898,-83.98531,,,0
ULTA EPPS BRIDGE CENTRE 0640,995621133,"1791 OCONEE CONNECTOR, SUITE 1",,ATHENS,GA,30606,US,,33.91707,-83.4588,,,0
BLUE MERCURY BUCKHEAD 172066,-710767177,37 West Pace Ferry Nw,,Atlanta,GA,30305,US,202-342-9800,33.8397746551179,-84.3809454740152,,,0
Sephora Lenox,-325782218,3393 Peachtree Road,,Atlanta,GA,30326,US,404-816-0123,33.84893,-84.365,,,0
Bloomingdale's Lenox Square Mall,-325782147,3393 Peachtree Road Ne,,Atlanta,GA,30326,US,404-495-2800,33.84893,-84.365,,,0
Saks Fifth Avenue Atlanta,-325782069,3440 Peachtree Road,,Atlanta,GA,30326,US,404-812-7325,33.85061,-84.36189,,,0
Nordstrom Phipps Plaza,-325782077,3500 Peachtree Road Ne,,Atlanta,GA,30326,US,(404) 442-3000,33.8520175247277,-84.3607074866851,,,0
SEPHORA CUMBERLAND 0430,-710818930,"1140 Cumberland Mall, Space 156",,Atlanta,GA,30339,US,(678) 503-0000,33.8821931109287,-84.4681019895425,,,0
Sephora Cumberland,-325781370,"1140 Cumberland Mall, Space 156",,Atlanta,GA,30339,US,(678) 503-0000,33.8821931109287,-84.4681019895425,,,0
ULTA ATLANTA 0223,995621121,THE DISTRICT AT HOWELL MILL STORE,"1801 HOWELL MILL ROAD, SUITE 240",ATLANTA,GA,30318,US,404-355-1326,33.8036715401777,-84.4140674214407,,,0
NARS COSMETICS,191768725,3035 Peachtree Road,Suite A-166,Atlanta,GA,30305,US,470-426-8646,33.8380067372185,-84.3809970392384,,,0
SEPHORA        BUCKHEAD 1104,860742094,Buckhead Exchange,"3167 Peachtree Road Nw, Space C",Atlanta,GA,30305,US,415-284-1657,33.840072,-84.3758063,,,0
SEPHORA        BUCKHEAD 1104,860742095,Buckhead Exchange,"3167 Peachtree Road Nw, Space C",Atlanta,GA,30305,US,415-284-1657,33.840072,-84.3758063,,,0
ULTA BUCKHEAD STATION 0072,995621112,BUCKHEAD STATION SHOPPING CENTER,"3495 BUCKHEAD LOOP, SUITE 120",ATLANTA,GA,30326,US,404-266-3559,33.8487275887255,-84.3700840544527,,,0
JC Penney- SIJCP Augusta Mall,-710819923,3450 Wrightsboro Rd,,Augusta,GA,30909-2511,US,706-736-1201,33.4673,-82.0807666666667,,,0
Sephora  Augusta,-325782021,3450 Wrightsboro Road Suite #2520,,Augusta,GA,30909,US,706-736-6511,33.4673,-82.0807666666667,,,0
ULTA AUGUSTA EXCHANGE 0530,995621129,257 ROBERT C. DANIELS JR. PKWY,,AUGUSTA,GA,30909,US,,33.4883758851618,-82.080424834294,,,0
ULTA MIDTOWN PARK 0408,995621577,3516 CLEMSON BLVD,,ANDERSON,SC,29621,US,864-226-3357,34.55125,-82.67719,,,0
ULTA CANTON MARKETPLACE 0285,995621124,1810 CUMMING HWY,SUITE 640,CANTON,GA,30114,US,770-479-4656,34.2378487280208,-84.4595981846955,,,0
ULTA MARKETPLACE BOULEVARD 0220,995621117,2295 MARKET PLACE BLVD,,CUMMING,GA,30040,US,770-887-2429,34.1945201732854,-84.1269304151624,,,0
JC PENNEY-SIJCP DOUGLASVILLE,274121130,6650 Douglas Blvd,Attn: Sijcp Beauty Leader,Douglasville,GA,30135,US,205-994-7330,33.7297589227606,-84.7480085511225,,,0
Sephora Perimeter,-325782244,"4400 Ashford Dunwoody Rd, Sp. 1585",,Atlanta,GA,30346,US,678-731-9950,33.92215,-84.33882,,,0
Nordstrom Perimeter,-325781593,4400 Ashford - Dunwoody Road,,Atlanta,GA,30346,US,770-394-1141,33.92215,-84.33882,,,0
ULTA WESTOVER MALL 0739,995621134,852 N. WESTOVER BLVD,,ALBANY,GA,31707,US,,31.6210828804214,-84.2189438581194,,,0
ULTA SNELLVILLE PAVILION 0078,995621114,"2059 SCENIC HIGHWAY, STE.# 107",,SNELLVILLE,GA,30078,US,770-979-7151,33.8671123872719,-84.0161295460975,,,0
Sephora Pearlridge,-325782031,98-1005 Moanalua Road Suite 224 Pearlrid,Pearlridge,Aiea,HI,96701,US,(808) 487-0660,21.3863527272727,-157.941791818182,,,0
SEPHORA        KA MAKANA 0014,451743331,"91-5431 Kapolei Parkway, Suite 1011",,Kapolei,HI,96707,US,,21.3356953842942,-158.050707177667,,,0
SEPHORA        KA MAKANA 0014,451743334,"91-5431 Kapolei Parkway, Suite 1011",,Kapolei,HI,96707,US,,21.3356953842942,-158.050707177667,,,0
Sephora Kalakaua,-325781757,2250 Kalakaua Ave,,Honolulu,HI,96815,US,415-284-4477,21.27898,-157.82883,,,0
Sephora Ala Moana,-325782168,"1450 Ala Moana Blvd., # 2058",,Honolulu,HI,96814,US,808-944-9797,21.2894259183673,-157.842793265306,,,0
Nordstrom Ala Moana,-325782005,1450 Ala Moana Blvd. Suite #2950,,Honolulu,HI,96814,US,808-953-6100,21.2894259183673,-157.842793265306,,,0
ULTA COBBLESTONE CREEK 0727,995621150,4150 YELLOWSTONE AVE,,POCATELLO,ID,83202,US,,42.908436791441,-112.46632,,,0
ULTA AMMON TOWN CENTER 1123,995621152,1967 S. 25TH E.,,AMMON,ID,83406,US,305-227-5728,43.4800187046632,-111.984494974093,,,0
ULTA CANYON PARK WEST 1044,995621151,1951 FILLMORE STREET,,TWIN FALLS,ID,83301,US,,42.594545684577,-114.46309105141,,,0
ULTA SILVER LAKE 0592,995621149,450 W. WILBUR AVE.,,COEUR D ALENE,ID,83814,US,,47.7371948979592,-116.794169591837,,,0
Sephora Boise,-325781999,350 North Milwaukee,,Boise,ID,83704,US,(208) 322-6278,43.60831,-116.28406,,,0
JC PENNEY-SIJCP BOISE TOWNE SQ,-325781406,300 N Milwaukee St,,Boise,ID,83704-9121,US,208-376-0555,43.6079107994368,-116.28335506566,,,0
JC Penney-SIJCP Nampa Gateway Ctr,-325781674,1200 N. Happy Valley Rd,,Nampa,ID,83687,US,208-442-5511,43.5948372727273,-116.51322,,,0
ULTA BOISE TOWNE PLAZA 0574,995621148,542 N. MILWAUKEE,,BOISE,ID,83704,US,,43.6098973763937,-116.284699574164,,,0
ULTA TREASURE VALLEY MARKETPLACE 0460,995621147,16475 N. MARKETPLACE BLVD,,NAMPA,ID,83687,US,208-467-0982,43.6124540853166,-116.590650743043,,,0
JC Penney-SIJCP Riverdale III,-325781664,4185 S. Riverdale Road,,Riverdale,UT,84405,US,801-621-2575,41.186555,-111.9854725,,,0
JC Penney-SIJCP Layton Hills Mall,-325781604,1050 Layton Hills Mall,,Layton,UT,84041,US,801-543-2225,41.0779491659716,-111.973545029191,,,0
ULTA LOGAN 0517,995621706,1050 NORTH MAIN STREET,,LOGAN,UT,84341,US,,41.7509816326531,-111.834484489796,,,0
JC Penney-SIJCP Spokane Valley Mall,-325781928,14730 E. Indiana Avenue,,Spokane,WA,99216,US,509-922-0288,47.6758917604063,-117.206033254597,,,0
JC Penney-SIJCP Northtown Mall,-325781930,4730 N. Division Street,,Spokane,WA,99207,US,509-487-2223,47.7014563636364,-117.41112,,,0
Sephora Spokane,-325781392,"808 West Main Avenue, Space #223",,Spokane,WA,99201,US,323-595-1597,47.6590191836735,-117.423644081633,,,0
Nordstrom Spokane,-325781835,828 West Main Avenue,,Spokane,WA,99201,US,509-455-6111,47.6590171428571,-117.423954285714,,,0
ULTA GRANT CREEK TOWN CENTER 0764,995621371,"3275 NORTH RESERVE STREET, STE M",,MISSOULA,MT,59802,US,,46.8952676923077,-114.039269230769,,,0
MECCA MAXIMA MACQUARIE CENTRE,-325782387,,,,,,US,011.61.39.420.7317,46.1676950860096,-112.061018158747,,,0
MECCA MAXIMA BONDI JUNCTION,-325782386,,,,,,US,011.61.39.420.7317,46.1676950860096,-112.061018158747,,,0
MECCA MAXIMA FOUNDATION GATE *SALES ONL*,-325782385,,,,,,US,011.61.39.420.7317,46.1676950860096,-112.061018158747,,,0
MECCA MAXIMA GARDEN CITY,-325782384,,,,,,US,011.61.39.420.7317,46.1676950860096,-112.061018158747,,,0
MECCA COSMETICS MIRANDA,-325782383,,,,,,US,011.61.39.420.7317,46.1676950860096,-112.061018158747,,,0
MECCA MAXIMA MIRANDA,-325782382,,,,,,US,011.61.39.420.7317,46.1676950860096,-112.061018158747,,,0
MECCA MAXIMA BURWOOD,-325782381,,,,,,US,011.61.39.420.7317,46.1676950860096,-112.061018158747,,,0
MECCA MAXIMA JOONDALUP,-325782380,,,,,,US,011.61.39.420.7317,46.1676950860096,-112.061018158747,,,0
Sephora Fresno,-325782205,,,,,,US,,46.1676950860096,-112.061018158747,,,0
JC Penney-SIJCP Northwood Shopping,-325781796,2200 W War Memorial Dr Ste 997,,Peoria,IL,61613,US,309-685-6111,40.7401622803438,-89.6259533792188,,,0
ULTA WEST LAKE SHOPPING CENTER 0504,995621175,2601 WEST LAKE STREET,,PEORIA,IL,61615,US,,40.73848,-89.6336152751646,,,0
ULTA EAST PEORIA DOWNTOWN 0649,995621179,470 W. WASHINGTON ST.,,EAST PEORIA,IL,61611,US,,40.6707092156459,-89.586911084133,,,0
Sephora Oakbrook,-325782236,104 Oakbrook Center,,Oak Brook,IL,60523,US,630-368-3322,41.8499325628141,-87.9567455778894,,,0
Nordstrom Oakbrook,-325782106,10 Oakbrook Center,,Oak Brook,IL,60521,US,630-571-2121,41.849930201005,-87.9566298492462,,,0
JC Penney-SIJCP Lombard Yorktown,-325781681,175 Yorktown S/C,,Lombard,IL,60148,US,630-629-7750,41.839852,-88.0032121,,,0
Nordstrom Woodfield,-325782104,6 Woodfield Mall,,Schaumburg,IL,60173,US,847-605-2121,42.0494190196078,-88.0376931372549,,,0
JC Penney-SIJCP Woodfield Mall,-325781780,3 Woodfield Mall,,Schaumburg,IL,60173,US,847-240-5000,42.0494196078431,-88.037667254902,,,0
Sephora Woodfield,-325782292,5 Woodfield Shopping Center,"Store E29, Woodfield Mall",Schaumburg,IL,60173,US,847-330-0203,42.04937,-88.03944,,,0
BLUE MERCURY HINSDALE,-710767161,21 E. First Street,,Hinsdale,IL,60521,US,630-455-1400,41.801595,-87.9284133333333,,,0
ULTA OAK BROOK PLACE 0062,995621156,THE SHOPS AT OAK BROOK PLACE,2155 W. 22ND STREET,OAK BROOK,IL,60523,US,630-573-9324,41.8461724994485,-87.9714700154408,,,0
ULTA VILLAGE CROSSING 0137,995621161,VILLAGE CROSSING SHOPPING CENTER,5485 TOUHY AVE.,ELK GROVE VILLAGE,IL,60007,US,847-329-1445,42.00817,-87.93959,,,0
ULTA BLOOMINGDALE COURT 0453,995621172,362 W. ARMY TRAIL RD,,BLOOMINGDALE,IL,60108,US,,41.9395408792716,-88.1289742095878,,,0
ULTA NAPERVILLE 008,995621154,NAPERVILLE & BUTTERFIELD ROADS,112 DANADA SQUARE WEST,WHEATON,IL,60187,US,630-221-0215,41.82884,-88.10537,,,0
ULTA SCHARRINGTON SQUARE 0430,995621170,"2411 SCHAUMBURG RD, UNIT B",,SCHAUMBURG,IL,60194,US,847-923-1739,42.0249426666667,-88.1400116666667,,,0
JC Penney-SIJCP South County Ctr,-325781747,100 S County Center Way,,Saint Louis,MO,63129,US,314-487-2500,38.5039557975412,-90.3320696395502,,,0
Sephora St. Louis Galleria,-325782267,2403 St. Louis Galleria,,Saint Louis,MO,63117,US,314-863-2600,38.6329534285714,-90.3475925714286,,,0
Nordstrom Saint Louis Galleria,-325781598,2403 St. Louis Galleria,,Saint Louis,MO,63117,US,314-884-4900,38.6329534285714,-90.3475925714286,,,0
ULTA FAIRVIEW CENTER 0410,995621168,6621 N. ILLINOIS ST,,FAIRVIEW HEIGHTS,IL,62208,US,618-398-6274,38.5959066801352,-89.98502,,,0
ULTA UNIVERSITY MALL 0704,995621184,"1245 EAST MAIN, SUITE A-31",,CARBONDALE,IL,62901,US,,37.7312737443489,-89.1916517286941,,,0
ULTA THE PROMENADE AT BRENTWOOD 0654,995621354,10 BRENTWOOD PROMENADE COURT,,BRENTWOOD,MO,63144,US,,38.6283618575121,-90.3415384235178,,,0
ARCH APOTHECARY,-710767216,214 E. State Street,,Rockford,IL,61104,US,815-639-9515,42.2692228571429,-89.0905971428571,,,0
JC PENNEY-SIJCP NORTHPARK SHOP CTR,-325781722,320 W Kimberly Rd Ste 409,,Davenport,IA,52806,US,563-391-4800,41.5602193939394,-90.5771512121212,,,0
ULTA NORTHRIDGE MALL 1 0428,995621143,4016 E. 53RD ST,,DAVENPORT,IA,52807,US,609-489-0103,41.5749210738255,-90.5170038255034,,,0
JC Penney- SIJCP Eastland Mall,-710819807,800 N Green River Rd,,Evansville,IN,47715-2495,US,812-477-7222,37.9841832833641,-87.4926783338432,,,0
Sephora  Evansville,-325781933,"800 N Green River Rd., Space 136",Space # 136,Evansville,IN,47715,US,415-284-4477,37.9841832833641,-87.4926783338432,,,0
JC Penney-SIJCP Randall Road,-325781877,800 S Randall Rd,,Algonquin,IL,60102,US,847-915-3267,42.16121,-88.3356,,,0
ULTA ALGONQUIN COMMONS 0277,995621164,ALGONQUIN COMMONS,1804 S. RANDALL ROAD,ALGONQUIN,IL,60102,US,847-458-0743,42.1491132741117,-88.3356898477157,,,0
BLUE MERCURY BARRINGTON VILLAGE,986098917,114 S. Hough Street,,Barrington,IL,60010,US,202-342-9800,42.15368,-88.13604,,,0
Sephora Champaign,-325781764,200 Noth Neil Street,,Champaign,IL,61820,US,415-284-4477,40.1174701,-88.243503,,,0
ULTA HICKORY POINT MALL 1059,995621186,1146 HICKORY POINT MALL,,FORSYTH,IL,62535-2088,US,,39.9210040714953,-88.9590051439241,,,0
ULTA BAYTOWNE SQUARE 0466,995621174,2023 N. PROSPECT AVE,,CHAMPAIGN,IL,61822,US,,40.1402715461877,-88.2578954994691,,,0
JC Penney-SIJCP Springfield,-325781619,1201 S Dirksen Pkwy,,Springfield,IL,62703,US,217-789-0550,39.7892890259578,-89.6058479061501,,,0
Sephora Orland Square,-325782159,"730 Square Dr., Space G08b-1",,Orland Park,IL,60462,US,(708) 349-0100,41.67092,-87.80891,,,0
JC Penney-SIJCP Orland Park Mall,-325781721,3 Orland Sq Dr,,Orland Park,IL,60462,US,708-349-7300,41.622185,-87.849005,,,0
ULTA ORLANDO PARK 0007,995621153,15754 SO. LAGRANGE ROAD,,ORLAND PARK,IL,60462,US,708-349-8898,41.6048263636364,-87.8529890909091,,,0
ULTA TINLEY PARK 0210,995621162,BROOKSIDE MARKETPLACE STORE,7350 W. 191ST STREET,TINLEY PARK,IL,60477,US,815-806-2659,41.54386,-87.79593,,,0
JC Penney-SIJCP West Park Mall,-325781705,200 West Park Mall,,Cape Girardeau,MO,63703-6397,US,573-334-2881,37.2990608124833,-89.5741731768473,,,0
ULTA HONEY CREEK MALL 0726,995621203,3401 SOUTH US HWY 41 SUITE E-12,,TERRE HAUTE,IN,47802,US,,39.42689,-87.4158,,,0
JC Penney-SIJCP Shop Of Prairie Ridge,-325781961,10225 77th Street,,Pleasant Prairie,WI,53142,US,262-237-6193,42.5648855491878,-87.9324881884774,,,0
ULTA GRAND HUNT 0067,995621157,GRAND HUNT SHOPPING CTR,6517 GRAND AVENUE,GURNEE,IL,60031,US,847-856-1002,42.3853669632575,-87.9643361767665,,,0
JC Penney-SIJCP West Towne Mall,-325781630,23 West Towne Mall,,Madison,WI,53719,US,608-833-9011,43.059915875,-89.506912875,,,0
Sephora Madison,-325782014,71 West Towne Mall,,Madison,WI,53719,US,(608) 827-5958,43.059906875,-89.506351875,,,0
ULTA DEKALB MARKET SQUARE 0613,995621177,2064 SYCAMORE ROAD,,DEKALB,IL,60115,US,,41.9496310360387,-88.728715793395,,,0
ULTA BRADLEY COMMONS PHASE 2 0338,995621165,2058 N. STATE ROUTE 50,,BOURBONNAIS,IL,60914,US,,41.1884459,-87.8475509,,,0
JC Penney-SIJCP Ogden Hill Of Mont,-325781773,1100 Ogden Ave,,Montgomery,IL,60538,US,630-851-5019,41.71848,-88.28197,,,0
JC Penney-SIJCP No Aurora Town Ctr,-325781684,1600 Orchard Gateway Blvd,,North Aurora,IL,60542,US,630-301-6300,41.79871,-88.35961,,,0
JC PENNEY-SIJCP FOX VALLEY S/C 10496,-325781444,4 Fox Valley Ctr,,Aurora,IL,60504-4194,US,630-851-6380,41.758842,-88.20755,,,0
Sephora Naperville,-325781369,132 W. Jefferson Ave.,,Naperville,IL,60540,US,(630) 778-4400,41.7729663265306,-88.1500851020408,,,0
BLUE MERCURY NAPERVILLE,-710767152,50 S. Main Street,,Naperville,IL,60540,US,202-342-9800,41.7746,-88.149465,,,0
ULTA WEST RIDGE COURT 0090,995621158,"2707 AURORA AVE., STE.#123",,NAPERVILLE,IL,60540,US,630-527-0065,41.7628786746988,-88.2001331325301,,,0
Blue Mercury Highland Park,-325781390,638 Central Ave,,Highland Park,IL,60035,US,202-343-9800,42.184988,-87.80119,,,0
Sephora  Northbrook,-325782230,1314 Northbrook Court,,Northbrook,IL,60062,US,847-714-0505,42.151875226925,-87.8171232024477,,,0
BLUE MERCURY LAKE FOREST,-710767159,680 N. Bank Lane,,Lake Forest,IL,60045,US,847-615-3000,42.2526602631579,-87.8413028947368,,,0
JC Penney-SIJCP Hawthorn Center,-325781569,Rt 60 & Hwy 21,,Vernon Hills,IL,60061,US,847-549-0788,42.2405447,-87.9445361,,,0
Sephora Hawthorn,-325781454,"122 Hawthorn Center, Space 144",,Vernon Hills,IL,60061,US,(847) 549-0788,42.245435,-87.94982,,,0
Sephora Deer Park,-325782037,20530 North Rand Road Suite 244,,Deer Park,IL,60010,US,(847) 438-8885,42.16231,-88.05303,,,0
JC Penney-SIJCP Golf Mill,-325781496,220 Golf Mill Center,,Niles,IL,60714,US,847-299-8888,42.0504110843373,-87.8398154216868,,,0
ULTA HAWTHORN HILLS SQUARE 0672,995621182,"700 N. MILWAUKEE AVE., SUITE 1",,VERNON HILLS,IL,60061,US,,42.2386995714286,-87.9443184285714,,,0
ULTA THE SHOPS @ KILDEER 0111,995621160,"20505 N. RAND ROAD, STE.#220",,KILDEER,IL,60047,US,815-550-9309,42.16231,-88.05303,,,0
JC Penney-SIJCP Mid Rivers Mall,-325781723,4 Mid Rivers Mall,,St Peters,MO,63376,US,636-970-2115,38.7972698226925,-90.6206795567311,,,0
Sephora Geneva,-325781703,406 Commons Drive,,Geneva,IL,60134,US,415-284-4477,41.8931583581777,-88.3436010923249,,,0
JC PENNEY-SIJCP N. RIVERSIDE MALL 13680,-325781442,7507 W Cermak Rd,,North Riverside,IL,60546-1474,US,708-442-6600,41.8502768965517,-87.8101706896552,,,0
JC Penney-SIJCP Lincoln Market,-325781871,4450 Promenade Way,,Matteson,IL,60443,US,708-441-6141,41.50027,-87.73377,,,0
JC Penney-SIJCP Mokena Marketplace,-325781662,11325 W Lincoln Hwy,,Mokena,IL,60448,US,815-227-4061,41.5041233333333,-87.89314,,,0
JC Penney-SIJCP Southlake Mall,-325781868,1890 Southlake Mall,,Merrillville,IN,46410,US,219-738-2155,41.4704602578928,-87.31253535793,,,0
ULTA KENTUCKY OAKS PAVILION 0771,995621231,"5161 HINKLEVILLE RD., UNIT C-2",,PUDUCAH,KY,42001,US,,37.075038327295,-88.6921180995316,,,0
JC Penney-SIJCP Cherryvale Mall,-325781484,7200 E Harrison Ave,,Rockford,IL,61112,US,815-332-5000,42.24118,-88.97549,,,0
ULTA SHOPPES AT N. BRUNSWICK 0370,995621166,6600 E. STATE STREET,,ROCKFORD,IL,61108,US,,42.2682268585283,-88.9862559577863,,,0
JC Penney-SIJCP Centerpointe,-325781688,7400 Woodward Ave,,Woodridge,IL,60517,US,630-322-9315,41.7528711111111,-88.0311244444444,,,0
JC Penny-SIJCP Westfield Louis 14514,-325781493,3340 Mall Loop Drive Space 2,,Joliet,IL,60431,US,815-439-1400,41.5794696666667,-88.1653213333333,,,0
ULTA WICKER PARK COMMONS 1138,995621188,"3839 EMERY STREET, SUITE 200",,CHICAGO,IL,60622-2268,US,404-355-1326,41.5190059,-88.123131,,,0
JC Penney-SIJCP Jonesburg,-325781678,2940 Commerce Rd,,Johnsburg,IL,60050,US,815-271-9147,42.3698224343976,-88.2672324343976,,,0
ULTA HIGHLAND GROVE 0384,995621198,10333 INDIANAPOLIS BLVD,,HIGHLAND,IN,46322,US,,41.52585,-87.47121,,,0
Nordstrom Old Orchard,-325782105,77 Old Orchard Shopping Center,,Skokie,IL,60077,US,847-677-2121,42.0555932727273,-87.74903,,,0
Sephora Old Orchard,-325782237,4999 Old Orchard Center Suite E9,,Skokie,IL,60077,US,847-568-0323,42.05893,-87.74774,,,0
BLUE MERCURY SOUTHPORT  172042,-710767145,3512 N. Southport Ave.,,Chicago,IL,60657,US,773-868-1300,41.945552,-87.663896,,,0
Sephora Iowa City,-325781387,"1451 Coral Ridge Ave, Space 320",,Coralville,IA,52241,US,(319) 351-2900,41.6912361904762,-91.6084414285714,,,0
JC Penney-SIJCP Columbia Mall,-325781802,2301 W Worley,,Columbia,MO,65203,US,573-445-7001,38.9615367145891,-92.3754878647271,,,0
JC PENNEY-SIJCP TIPPECANOE MALL 08821,-325781417,2415 Sagamore Pkwy S 52,,Lafayette,IN,47905-5124,US,765-447-3161,40.392485934006,-86.8540044663063,,,0
JC Penney-SIJCP Valparaiso,-325781853,410 Porters Vale Blvd,,Valparaiso,IN,46383,US,219-531-0596,41.4723501359767,-87.0163439864023,,,0
JC Penney-SIJCP NW Pavilon,-325781478,8752 Michigan Road,,Indianapolis,IN,46268,US,317-334-0353,39.9135244594595,-86.2236414864865,,,0
JC Penney-SIJCP Metropolis,-325781646,2611 E Main Street,,Plainfield,IN,46168,US,317-837-0042,39.7165867056603,-86.3602412598185,,,0
ULTA PLAINFIELD 0211,995621195,METROPOLIS STORE,"301 METROPOLIS MILE, SUITE 120",PLAINFIELD,IN,46168,US,317-837-9652,39.71155,-86.35863,,,0
JC Penney-SIJCP Glenbrook Mall,-325781731,4201 Coldwater Rd,,Fort Wayne,IN,46805,US,260-482-4661,41.1159110062325,-85.1352414388152,,,0
JC Penney- SIJCP University Park,-710819477,6501 N Grape Rd.,,Mishawaka,IN,46545-1092,US,574-277-6000,41.71943,-86.18775,,,0
Sephora University Park,-325782158,6501 North Grape Rd.,,Mishawaka,IN,46545,US,(574) 272-1600,41.71943,-86.18775,,,0
ULTA BOULEVARD CROSSING 0439,995621200,2140 E. MARKLAND AVE.,,KOKOMO,IN,46901,US,,40.47672,-86.103516,,,0
ULTA JEFFERSON POINT 0112,995621191,JEFFERSON POINT SHOPPING CTR,,FT WAYNE,IN,46804,US,260-459-0041,41.071708,-85.196803,,,0
ULTA NORTHCREST SHOPPING 1008,995621205,"705 E COLISEUM BLVD, STE B",,FORT WAYNE,IN,46805,US,,41.1183915674636,-85.1310379712834,,,0
ULTA MUNCIE PLAZA 0716,995621201,1020 EAST PRINCETON AVENUE,,MUNCIE,IN,47303,US,,40.2243596357025,-85.3755195456287,,,0
JC Penney-SIJCP Noblesville,-325781869,13900 Hoard Dr,,Noblesville,IN,46060,US,371-773-0670,39.99052,-85.93009,,,0
JC Penney-SIJCP Greentree Mall,-325781788,757 E Lewis & Clark Pkwy Ste701,,Clarksville,IN,47129,US,812-282-0401,38.31081,-85.76701,,,0
JC Penney-SIJCP Jefferson Mall,-325781787,4803 Outer Loop Rd,,Louisville,KY,40219,US,502-968-3381,38.1379952411712,-85.6731800645958,,,0
JC Penney-SIJCP Mall St Matthews,-325781785,5000 Shelbyville Rd,,Louisville,KY,40207,US,502-897-3161,38.25017,-85.62352,,,0
Sephora Oxmoor Center,-325782052,7900 Shelbyville Rd.,,Louisville,KY,40222,US,(502) 326-2966,38.24886,-85.60683,,,0
ULTA THE SUMMIT 0113,995621219,THE SUMMIT AT LOUISVILLE,4292 SUMMIT PLAZA DRIVE,LOUISVILLE,KY,40241,US,502-326-9958,38.3093172992758,-85.5776301551021,,,0
ULTA OWENSBORO TOWNE CENTER 0506,995621228,"5241 FREDERICA ST, SUITE D",,OWENSBORO,KY,42301,US,,37.71603,-87.12555,,,0
Sephora Greenwood,-325781923,1251 Us Highway 31 N,,Greenwood,IN,46142,US,415-284-4477,39.6329483,-86.120412,,,0
JC Penney-SIJCP Greenwood Park,-325781895,1251 Us 31 N,,Greenwood,IN,46142,US,317-882-7339,39.6328530003976,-86.1247909810522,,,0
JC Penney-SIJCP Florence Mall,-325781800,6000 Florence Mall,,Florence,KY,41042,US,859-525-1170,38.9961312734864,-84.6530155741127,,,0
Sephora Crestview Hills,-325781699,2854 Town Center Blvd,,Crestview Hills,KY,41017,US,415-284-4477,39.0252463636364,-84.5776881818182,,,0
JC Penney-SIJCP Stone Creek,-325781878,3675 Stone Creek Blvd,,Colerain,OH,45251,US,513-245-9800,39.2529303439938,-84.6001383510142,,,0
ULTA FLORENCE SQUARE 0486,995621224,7673 MALL ROAD,,FLORENCE,KY,41042,US,859-282-8561,38.9975895198317,-84.6536261788391,,,0
ULTA NORTHGATE MALL 0598,995621509,9651 COLERAIN AVENUE,,CINCINNATI,OH,45251,US,,39.246745,-84.5960966666667,,,0
ULTA NEWPORT PAVILION 0703,995621230,154 PAVILION PARKWAY,,NEWPORT,KY,41071,US,,39.0906790423592,-84.4768489359546,,,0
JC Penney-SIJCP Bridgewater Falls,-325781741,3459 Princeton Rd,,Hamilton,OH,45011,US,513-671-2511,39.3905375541163,-84.5004473666276,,,0
JC Penney-SIJCP Dayton Mall,-325781801,2700 Miamisburg-Centerville Rd,,Centerville,OH,45459,US,937-436-5465,39.636739091748,-84.2190084872719,,,0
Saks Fifth Avenue Indianapolis,-325782056,8725 Keystone Crossing,Fashion Mall,Indianapolis,IN,46240,US,(317) 816-0171,39.91483,-86.10942,,,0
Sephora Keystone,-325782214,8702 Keystone Crossing,,Indianapolis,IN,46240,US,317-587-0700,39.9143021235102,-86.1095835571624,,,0
Nordstrom Keystone,-325781527,8702 Keystone Crossing,,Indianapolis,IN,46240,US,(317) 810-9809,39.9143021235102,-86.1095835571624,,,0
JC Penney-SIJCP Castleton Sq Mall,-325781887,"6020 E 82nd St, Ste 700",,Indianapolis,IN,46250,US,317-849-6500,39.9053525044117,-86.0640920985327,,,0
JC Penney-SIJCP Crossroads Mall 19828,-325781737,6580 S Westnedge Ave,,Portage,MI,49024,US,269-323-7711,42.2225048979592,-85.58947,,,0
JC Penney-SIJCP Lima Mall,-325781746,2400 Elida Rd,,Lima,OH,45805,US,419-331-0361,40.76305,-84.14971,,,0
Sephora State Street,-325781889,108 North State Street Unit # 134,Unit # 134,Chicago,IL,60602,US,(312) 263-8688,41.8834530769231,-87.6278930769231,,,0
Macy's State Street,-325782120,111 North State Street,,Chicago,IL,60602,US,312-781-1000,41.8839365,-87.6279005,,,0
JC Penney-SIJCP Valley West Mall,-325781811,1551 Valley West Dr,,W Des Moines,IA,50266,US,515-223-5353,41.595493209322,-93.75183,,,0
Sephora Jordan Creek,-325782157,"101 Jordan Creek Parkway, Suite 11240",,West Des Moines,IA,50266,US,(515) 457-1200,41.56849,-93.8092,,,0
ULTA MERLE HAY MALL 0334,995621142,3800 MERLE HAY ROAD,UNIT # 507,DES MOINES,IA,50310,US,515-276-0410,41.62941,-93.69781,,,0
ULTA WEST DES MOINES 0195,995621140,JORDAN CREEK TOWN CENTER STORE,"6805 MILLS CIVIC PKWY, SUITE 110",WEST DES MOINES,IA,50266,US,515-224-4717,41.58272,-93.80926,,,0
ULTA E. VIKING PLAZA 1018,995621145,416 VIKING PLAZA DRIVE,,CEDAR FALLS,IA,50613,US,,42.48335,-92.44535,,,0
JC Penney-SIJCP Sothern Hills Mall,-325781486,4340 Sergeant Rd,,Sioux City,IA,51106,US,712-276-2747,42.4483912123306,-96.3513398995483,,,0
JC Penney-SIJCP The Empire Plaza,-325781783,3200 W Empire Mall,,Sioux Falls,SD,57106,US,605-361-6123,43.512519979158,-96.77709,,,0
Sephora Empire Mall,-325781391,"4001 W 41st Street, Suite # 0134b",,Sioux Falls,SD,57106,US,(605) 362-5395,43.51485,-96.77449,,,0
ULTA SUNNYBROOK VILLAGE 1101,995621146,5747 SUNNYBROOK DRIVE,,SIOUX CITY,IA,51106,US,305-227-5728,42.4520199790825,-96.3325654207562,,,0
ULTA EMPIRE EAST MALL 0674,995621587,3800 S LOUISE AVENUE #304A,,SIOUX FALLS,SD,57106,US,,43.5103,-96.77104,,,0
ULTA MARKETPLACE ON FIRST 0221,995621141,4651 1ST AVENUE SE SUITE 3,,CEDAR RAPIDS,IA,52403,US,319-294-3100,42.0244766352114,-91.6234651656336,,,0
JC Penney-SIJCP Papillon,-325781694,7751 Towne Center Parkway,,Papillion,NE,68046,US,402-592-1825,41.13623,-96.02907,,,0
JC Penney-SIJCP The Market Place,-325781668,3333 Market Place Drive,,Council Bluffs,IA,51501,US,712-336-1107,41.22778,-95.87767,,,0
JC Penney-SIJCP West Roads Center,-325781465,800 N 98th St,,Omaha,NE,68114,US,402-397-4600,41.26799,-96.06523,,,0
JC PENNEY-SIJCP OAK VIEW MALL 07310,-325781445,3202 Oakview Dr,,Omaha,NE,68144-5633,US,402-334-2470,41.2284072929618,-96.1322638266862,,,0
Sephora Village Pointe,-325782013,171 Davenport Street Suite #103,,Omaha,NE,68118,US,(402) 289-3939,41.26084,-96.18146,,,0
ULTA METRO CROSSINGS 0532,995621144,3502 METRO DRIVE SUITE 100,,COUNCIL BLUFFS,IA,51501,US,,41.2252270643335,-95.8407060819058,,,0
ULTA L STREET MARKETPLACE 0264,995621406,12430 K PLAZA,,OMAHA,NE,68137,US,,41.2129009663828,-96.1079151680861,,,0
JC PENNEY-SIJCP APACHE MALL 03186,-710819931,101 Apache Mall,,Rochester,MN,55902-2169,US,507-288-8383,44.0048498601378,-92.4755455247023,,,0
JC Penney-SIJCP Burnsville Center,-325781578,14301 Burnhaven Dr,,Burnsville,MN,55306,US,951-435-8551,44.74247,-93.29281,,,0
JC Penney-SIJCP Eden Prairie Ctr,-325781866,8251 Flying Cloud Drive,,Eden Prairie,MN,55344,US,652-644-6807,44.8541582943497,-93.4298413020072,,,0
JC Penney- SIJCP Westdale Mall,81577368,2400 Edgewood Rd Sw,,Cedar Rapids,IA,52404,US,319-396-0777,41.95288,-91.71613,,,0
JC Penney-SIJCP East Hills,-325781657,"3702 Frederick Ave, Ste 7",,Saint Joseph,MO,64506,US,816-279-6381,39.7769502040816,-94.802673877551,,,0
JC Penney-SIJCP Valley View Mall,-325781495,3700 State Rd 16,,La Crosse,WI,54601,US,608-781-8000,43.8665122542198,-91.2024095451201,,,0
ULTA VALLEY VIEW MALL 1094,995621784,"3800 STATE ROAD 16, UNIT 0157",,LACROSSE,WI,54601,US,,43.7899,-91.2040046519153,,,0
JC Penney-SIJCP Towne West Square,-325781711,4600 W Kellogg Rd,,Wichita,KS,67209,US,316-945-0141,37.67367,-97.3955,,,0
ULTA NEW MARKET SQUARE SHIPPING 0472,995621208,"2441 N. MAIZE RD., SUITE 2101",,WICHITA,KS,67205,US,316-729-5566,37.7270385294118,-97.46269,,,0
Sephora Wichita,-325781698,2000 N. Rockford Suite 118,,Wichita,KS,67206,US,816-636-5500,37.7195176190476,-97.24458,,,0
JC Penney-SIJCP Towne East Square,-325781712,7700 E Kellogg Dr,,Wichita,KS,67207-1771,US,316-685-6261,37.67974,-97.24816,,,0
ULTA 27TH & IOWA CENTER 1190,995621217,"2727 IOWA STREET, SUITE F",,LAWRENCE,KS,66046,US,,38.933970407412,-95.2609212627901,,,0
JC Penney-SIJCP Gateway Mall,-325781946,68 Gateway Mall,,Lincoln,NE,68505,US,402-466-2222,40.8140119,-96.6418261,,,0
ULTA SOUTH POINTE PAVILIONS 0535,995621408,3120 PINE LAKE RD.,,LINCOLN,NE,68516,US,,40.740963,-96.674874,,,0
JC Penney-SIJCP Legends At Village,-325781786,10904 Stadium Pkwy,,Kansas City,KS,66111,US,913-334-0285,39.126165528056,-94.8303335003208,,,0
JC Penney-SIJCP Oak Park Shopping,-325781938,11801 W 95th St,,Overland Park,KS,66214,US,913-492-8150,38.95648,-94.7187933333333,,,0
