store_name,store_number,address,address2,city,state,zip_code,country,phone_number,latitude,longitude,store_hours,other_fields,coming_soon
SEM-LONGWOOD EA,8530136,801 E STATE ROAD 434,,LONGWOOD,FL,32750-5306,United States,(407)260-5144,28.698,-81.3332,Monday:9AM-5PM; Tuesday:9AM-5PM; Wednesday:9AM-5PM; Thursday:9AM-5PM; Friday:9AM-6PM; Saturday: CLOSED; Sunday: CLOSED; ,,0
SEM CASSELBERRY,8530132,894 STATE ROAD 436,,CASSELBERRY,FL,32707-5304,United States,(407)339-2265,28.6498,-81.3259,Monday:9AM-5PM; Tuesday:9AM-5PM; Wednesday:9AM-5PM; Thursday:9AM-5PM; Friday:9AM-6PM; Saturday: CLOSED; Sunday: CLOSED; ,,0
SEM-LONGWOOD W,8530130,2127 W STATE ROAD 434,,LONGWOOD,FL,32779-4983,United States,(407)862-2265,28.6887,-81.3933,Monday:9AM-5PM; Tuesday:9AM-5PM; Wednesday:9AM-5PM; Thursday:9AM-5PM; Friday:9AM-6PM; Saturday: CLOSED; Sunday: CLOSED; ,,0
SEM-LAKE MARY B,8530133,4699 W LAKE MARY BLVD,,LAKE MARY,FL,32746-4301,United States,(407)444-2265,28.7557,-81.3581,Monday:9AM-5PM; Tuesday:9AM-5PM; Wednesday:9AM-5PM; Thursday:9AM-5PM; Friday:9AM-6PM; Saturday: CLOSED; Sunday: CLOSED; ,,0
LEHIGHTON GIANT,2820212,1241 BLAKESLEE BOULEVARD DR E,,LEHIGHTON,PA,18235-2401,United States,(570)386-8291,40.8147,-75.7321,Monday:9AM-6PM; Tuesday:9AM-6PM; Wednesday:9AM-6PM; Thursday:9AM-6PM; Friday:9AM-6PM; Saturday:9AM-3PM; Sunday:9AM-1PM; ,,0
LAKE HOWELL,8530103,2525 HOWELL BRANCH RD,,CASSELBERRY,FL,32707-6573,United States,(407)671-1440,28.6258,-81.3171,Monday:9AM-5PM; Tuesday:9AM-5PM; Wednesday:9AM-5PM; Thursday:9AM-5PM; Friday:9AM-6PM; Saturday: CLOSED; Sunday: CLOSED; ,,0
MAITLAND HORATI,8530119,360 E HORATIO AVE,,MAITLAND,FL,32751-4517,United States,(407)628-4626,28.6272,-81.3625,Monday:9AM-5PM; Tuesday:9AM-5PM; Wednesday:9AM-5PM; Thursday:9AM-5PM; Friday:9AM-6PM; Saturday: CLOSED; Sunday: CLOSED; ,,0
LEBANON,2090158,1850 E MAIN ST,,LEBANON,VA,24266-3437,United States,(276)889-4815,36.907,-82.0478,Monday:9AM-5PM; Tuesday:9AM-5PM; Wednesday:9AM-5PM; Thursday:9AM-5PM; Friday:9AM-6PM; Saturday:9AM-12PM; Sunday: CLOSED; ,,0
NEW EGYPT,2810919,8 JACOBSTOWN RD,,NEW EGYPT,NJ,08533-1019,United States,(609)758-7400,40.0679,-74.5361,Monday:9AM-5PM; Tuesday:9AM-5PM; Wednesday:9AM-5PM; Thursday:9AM-5PM; Friday:9AM-6PM; Saturday:9AM-12PM; Sunday: CLOSED; ,,0
CORBIN,2774604,1390 MASTER ST,,CORBIN,KY,40701-2560,United States,(606)528-6600,36.9563,-84.0759,Monday:9AM-4PM; Tuesday:9AM-4PM; Wednesday:9AM-4PM; Thursday:9AM-4PM; Friday:9AM-5PM; Saturday: CLOSED; Sunday: CLOSED; ,,0
ALTAMONTE SPRGS,8530107,151 N STATE ROAD 434,,ALTAMONTE SPRINGS,FL,32714-2946,United States,(407)869-7070,28.664,-81.4185,Monday:9AM-5PM; Tuesday:9AM-5PM; Wednesday:9AM-5PM; Thursday:9AM-5PM; Friday:9AM-6PM; Saturday:9AM-12PM; Sunday: CLOSED; ,,0
WEST DEPTFORD,2810211,998 KINGS HWY,,WEST DEPTFORD,NJ,08086-2224,United States,(856)686-3811,39.8172,-75.1923,Monday:9AM-5PM; Tuesday:9AM-5PM; Wednesday:9AM-5PM; Thursday:9AM-5PM; Friday:9AM-6PM; Saturday:9AM-1PM; Sunday: CLOSED; ,,0
MAIN,8428016,201 S MAIN ST,,GREENSBORO,GA,30642-1113,United States,(706)453-2344,33.5745,-83.1831,Monday:9AM-5PM; Tuesday:9AM-5PM; Wednesday:9AM-5PM; Thursday:9AM-5PM; Friday:9AM-5PM; Saturday: CLOSED; Sunday: CLOSED; ,,0
WINTER PARK VIL,8530102,605 N ORLANDO AVE,,WINTER PARK,FL,32789-2917,United States,(407)691-2140,28.602,-81.3651,Monday:9AM-5PM; Tuesday:9AM-5PM; Wednesday:9AM-5PM; Thursday:9AM-5PM; Friday:9AM-6PM; Saturday: CLOSED; Sunday: CLOSED; ,,0
SEM-OVIEDO,8530135,3055 ALAFAYA TRL,,OVIEDO,FL,32765-9403,United States,(407)971-7500,28.6253,-81.2084,Monday:9AM-5PM; Tuesday:9AM-5PM; Wednesday:9AM-5PM; Thursday:9AM-5PM; Friday:9AM-6PM; Saturday: CLOSED; Sunday: CLOSED; ,,0
MULLICA HILL,2810208,114 N MAIN ST,,MULLICA HILL,NJ,08062-9489,United States,(856)478-2817,39.7447,-75.2235,Monday:9AM-5PM; Tuesday:9AM-5PM; Wednesday:9AM-5PM; Thursday:9AM-5PM; Friday:9AM-6PM; Saturday:9AM-1PM; Sunday: CLOSED; ,,0
BYPASS,2775702,103 SMITH RD,,GLASGOW,KY,42141-1600,United States,(270)659-5233,37.0074,-85.923,Monday:9AM-4PM; Tuesday:9AM-4PM; Wednesday:9AM-4PM; Thursday:9AM-4PM; Friday:9AM-5PM; Saturday:9AM-12PM; Sunday: CLOSED; ,,0
UNIVERSITY BLVD,8530111,11311 UNIVERSITY BLVD,,ORLANDO,FL,32817,United States,(407)541-4648,28.5977,-81.2237,Monday:9AM-5PM; Tuesday:9AM-5PM; Wednesday:9AM-5PM; Thursday:9AM-5PM; Friday:9AM-6PM; Saturday: CLOSED; Sunday: CLOSED; ,,0
AUDUBON,2810303,40 S WHITE HORSE PIKE,,AUDUBON,NJ,08106-1333,United States,(856)310-0007,39.8952,-75.0706,Monday:9AM-5PM; Tuesday:9AM-5PM; Wednesday:9AM-5PM; Thursday:9AM-5PM; Friday:9AM-6PM; Saturday:9AM-1PM; Sunday: CLOSED; ,,0
CAVE CITY,2775703,102 BROADWAY ST,,CAVE CITY,KY,42127-8803,United States,(270)773-2156,37.1383,-85.9594,Monday:9AM-4PM; Tuesday:9AM-4PM; Wednesday:9AM-4PM; Thursday:9AM-4PM; Friday:9AM-5PM; Saturday: CLOSED; Sunday: CLOSED; ,,0
LITTLE ELM,8712015,12292 FM 423,,FRISCO,TX,75033-5222,United States,(469)268-3048,33.1805,-96.8865,Monday:9AM-5PM; Tuesday:9AM-5PM; Wednesday:9AM-5PM; Thursday:9AM-5PM; Friday:9AM-6PM; Saturday: CLOSED; Sunday: CLOSED; ,,0
RITTENHOUSE SQU,2810702,1845 WALNUT ST STE 125,,PHILADELPHIA,PA,19103-4708,United States,(215)563-1168,39.9503,-75.1714,Monday:9AM-5PM; Tuesday:9AM-5PM; Wednesday:9AM-5PM; Thursday:9AM-5PM; Friday:9AM-6PM; Saturday:9AM-12PM; Sunday: CLOSED; ,,0
WALSINGHAM,8551209,14141 WALSINGHAM RD,,LARGO,FL,33774-3230,United States,(727)596-5674,27.8811,-82.8335,Monday:9AM-5PM; Tuesday:9AM-5PM; Wednesday:9AM-5PM; Thursday:9AM-5PM; Friday:9AM-6PM; Saturday: CLOSED; Sunday: CLOSED; ,,0
RUSSELL SPRINGS,2774606,2198 LAKEWAY DR,,RUSSELL SPRINGS,KY,42642-4352,United States,(270)866-3134,37.0644,-85.0751,Monday:9AM-4PM; Tuesday:9AM-4PM; Wednesday:9AM-4PM; Thursday:9AM-4PM; Friday:9AM-5PM; Saturday: CLOSED; Sunday: CLOSED; ,,0
HIGHLAND VILLAG,8710210,1100 VILLAGE PKWY,,HIGHLAND VILLAGE,TX,75077-3093,United States,(469)702-3045,33.0737,-97.0826,Monday:9AM-5PM; Tuesday:9AM-5PM; Wednesday:9AM-5PM; Thursday:9AM-5PM; Friday:9AM-6PM; Saturday: CLOSED; Sunday: CLOSED; ,,0
7 PENN,2810701,1635 MARKET ST STE 110,,PHILADELPHIA,PA,19103-2226,United States,(215)561-0342,39.9529,-75.1681,Monday:9AM-5PM; Tuesday:9AM-5PM; Wednesday:9AM-5PM; Thursday:9AM-5PM; Friday:9AM-6PM; Saturday: CLOSED; Sunday: CLOSED; ,,0
BELLEAIR BLUFFS,8551206,401 INDIAN ROCKS RD N,,BELLEAIR BLUFFS,FL,33770-2014,United States,(727)559-0658,27.9205,-82.8145,Monday:9AM-5PM; Tuesday:9AM-5PM; Wednesday:9AM-5PM; Thursday:9AM-5PM; Friday:9AM-6PM; Saturday: CLOSED; Sunday: CLOSED; ,,0
KROGER 1,2775606,2945 SCOTTSVILLE RD,,BOWLING GREEN,KY,42104-6331,United States,(270)782-4496,36.9431,-86.4251,Monday:10AM-7PM; Tuesday:10AM-7PM; Wednesday:10AM-7PM; Thursday:10AM-7PM; Friday:10AM-7PM; Saturday:10AM-3PM; Sunday: CLOSED; ,,0
LEWISVILLE,8710208,1081 W MAIN ST STE 101,,LEWISVILLE,TX,75067-3598,United States,(972)538-0041,33.0427,-97.0192,Monday:9AM-5PM; Tuesday:9AM-5PM; Wednesday:9AM-5PM; Thursday:9AM-5PM; Friday:9AM-6PM; Saturday:9AM-1PM; Sunday: CLOSED; ,,0
LAKE OCONEE,8428017,1011 POWERS RD,,GREENSBORO,GA,30642-6827,United States,(706)454-2990,33.4571,-83.2459,Monday:9AM-5PM; Tuesday:9AM-5PM; Wednesday:9AM-5PM; Thursday:9AM-5PM; Friday:9AM-6PM; Saturday: CLOSED; Sunday: CLOSED; ,,0
MARKET STREET,2810710,2040 MARKET ST,,PHILADELPHIA,PA,19103-3302,United States,(215)606-1895,39.9537,-75.1746,Monday:9AM-5PM; Tuesday:9AM-5PM; Wednesday:9AM-5PM; Thursday:9AM-5PM; Friday:9AM-5PM; Saturday:9AM-12PM; Sunday: CLOSED; ,,0
ONE PENN CENTER,2810708,1617 JFK BLVD,,PHILADELPHIA,PA,19103-1821,United States,(215)448-9620,39.954,-75.1674,Monday:8:30AM-5PM; Tuesday:8:30AM-5PM; Wednesday:8:30AM-5PM; Thursday:8:30AM-5PM; Friday:8:30AM-6PM; Saturday: CLOSED; Sunday: CLOSED; ,,0
EAST BAY,8551216,350 E BAY DR,,LARGO,FL,33770-3716,United States,(727)585-3111,27.9168,-82.7839,Monday:9AM-5PM; Tuesday:9AM-5PM; Wednesday:9AM-5PM; Thursday:9AM-5PM; Friday:9AM-6PM; Saturday:9AM-12PM; Sunday: CLOSED; ,,0
GLASSBORO,2810209,600 DELSEA DR N,,GLASSBORO,NJ,08028-1419,United States,(856)863-3636,39.7161,-75.1121,Monday:9AM-5PM; Tuesday:9AM-5PM; Wednesday:9AM-5PM; Thursday:9AM-5PM; Friday:9AM-7PM; Saturday:9AM-1PM; Sunday: CLOSED; ,,0
FAIRVIEW,2775602,1025 FAIRVIEW AVE,,BOWLING GREEN,KY,42103-1647,United States,(270)782-4486,36.9907,-86.4268,Monday:9AM-4PM; Tuesday:9AM-4PM; Wednesday:9AM-4PM; Thursday:9AM-4PM; Friday:9AM-5PM; Saturday: CLOSED; Sunday: CLOSED; ,,0
WARREN,8712014,3434 LEGACY DR,,FRISCO,TX,75034-6032,United States,(469)365-6000,33.1078,-96.841,Monday:9AM-5PM; Tuesday:9AM-5PM; Wednesday:9AM-5PM; Thursday:9AM-5PM; Friday:9AM-6PM; Saturday: CLOSED; Sunday: CLOSED; ,,0
HATCHER SQUARE,8428019,2345 N COLUMBIA ST,,MILLEDGEVILLE,GA,31061-2092,United States,(478)457-3581,33.1091,-83.2542,Monday:9AM-5PM; Tuesday:9AM-5PM; Wednesday:9AM-5PM; Thursday:9AM-5PM; Friday:9AM-6PM; Saturday: CLOSED; Sunday: CLOSED; ,,0
CAMDEN,2810304,1 MARKET ST STE 2B,,CAMDEN,NJ,08102-2308,United States,(856)225-0163,39.9473,-75.1272,Monday:9AM-5PM; Tuesday:9AM-5PM; Wednesday:9AM-5PM; Thursday:9AM-5PM; Friday:9AM-6PM; Saturday: CLOSED; Sunday: CLOSED; ,,0
LAWNSIDE,2810307,305 WHITE HORSE PIKE S,,LAWNSIDE,NJ,08045-1213,United States,(856)546-1000,39.8634,-75.0351,Monday:9AM-5PM; Tuesday:9AM-5PM; Wednesday:9AM-5PM; Thursday:9AM-5PM; Friday:9AM-6PM; Saturday:9AM-1PM; Sunday: CLOSED; ,,0
SEMINOLE BLVD,8551113,7600 SEMINOLE BLVD,,SEMINOLE,FL,33772-4827,United States,(727)391-0735,27.8412,-82.7872,Monday:9AM-5PM; Tuesday:9AM-5PM; Wednesday:9AM-5PM; Thursday:9AM-5PM; Friday:9AM-6PM; Saturday: CLOSED; Sunday: CLOSED; ,,0
RICHWOOD,2810210,638 MULLICA HILL RD,,RICHWOOD,NJ,08074-0350,United States,(856)589-0992,39.7203,-75.1599,Monday:9AM-5PM; Tuesday:9AM-5PM; Wednesday:9AM-5PM; Thursday:9AM-5PM; Friday:9AM-6PM; Saturday:9AM-1PM; Sunday: CLOSED; ,,0
KROGER 2,2775607,350 US 31W BYP,,BOWLING GREEN,KY,42101-1770,United States,(270)782-4492,36.9966,-86.4247,Monday:10AM-7PM; Tuesday:10AM-7PM; Wednesday:10AM-7PM; Thursday:10AM-7PM; Friday:10AM-7PM; Saturday:10AM-3PM; Sunday: CLOSED; ,,0
FRISCO WADE,8712002,6021 PRESTON RD,,FRISCO,TX,75034-7429,United States,(972)624-7101,33.1286,-96.8052,Monday:9AM-5PM; Tuesday:9AM-5PM; Wednesday:9AM-5PM; Thursday:9AM-5PM; Friday:9AM-6PM; Saturday: CLOSED; Sunday: CLOSED; ,,0
HADDONFIELD,2810306,110 KINGS HWY E,,HADDONFIELD,NJ,08033-2004,United States,(856)857-1414,39.8968,-75.0338,Monday:9AM-5PM; Tuesday:9AM-5PM; Wednesday:9AM-5PM; Thursday:9AM-5PM; Friday:9AM-6PM; Saturday:9AM-2PM; Sunday: CLOSED; ,,0
ROBESONIA,2820120,402 E PENN AVE,,ROBESONIA,PA,19551,United States,(610)693-8485,40.3472,-76.123,Monday:9AM-4PM; Tuesday:9AM-4PM; Wednesday:9AM-4PM; Thursday:9AM-5PM; Friday:9AM-6PM; Saturday: CLOSED; Sunday: CLOSED; ,,0
MISSOURI AVENUE,8551204,1299 S MISSOURI AVE,,CLEARWATER,FL,33756-4174,United States,(727)449-1448,27.9502,-82.787,Monday:9AM-5PM; Tuesday:9AM-5PM; Wednesday:9AM-5PM; Thursday:9AM-5PM; Friday:9AM-6PM; Saturday: CLOSED; Sunday: CLOSED; ,,0
FOUNTAIN SQUARE,2775604,443 PARK ROW,,BOWLING GREEN,KY,42101-2242,United States,(270)782-4411,36.9926,-86.4415,Monday:9AM-4PM; Tuesday:9AM-4PM; Wednesday:9AM-4PM; Thursday:9AM-4PM; Friday:9AM-5PM; Saturday: CLOSED; Sunday: CLOSED; ,,0
IRMO,8046822,7425 SAINT ANDREWS RD,,IRMO,SC,29063-2857,United States,(803)251-1670,34.0859,-81.1835,Monday:8:30AM-5PM; Tuesday:8:30AM-5PM; Wednesday:8:30AM-5PM; Thursday:8:30AM-5PM; Friday:8:30AM-6PM; Saturday: CLOSED; Sunday: CLOSED; ,,0
FRISCO LEBANON,8712008,5125 PRESTON RD,,FRISCO,TX,75034-7411,United States,(469)535-2216,33.122,-96.8062,Monday:9AM-5PM; Tuesday:9AM-5PM; Wednesday:9AM-5PM; Thursday:9AM-5PM; Friday:9AM-6PM; Saturday:9AM-1PM; Sunday: CLOSED; ,,0
GIRARD,2810707,136 W GIRARD AVE,,PHILADELPHIA,PA,19123-1623,United States,(215)627-3769,39.9689,-75.1375,Monday:9AM-5PM; Tuesday:9AM-5PM; Wednesday:9AM-5PM; Thursday:9AM-5PM; Friday:9AM-6PM; Saturday:9AM-12PM; Sunday: CLOSED; ,,0
BERNVILLE,2820114,201 N MAIN ST,,BERNVILLE,PA,19506,United States,(610)488-6226,40.4316,-76.1111,Monday:9AM-4PM; Tuesday:9AM-4PM; Wednesday:9AM-4PM; Thursday:9AM-5PM; Friday:9AM-6PM; Saturday:9AM-12PM; Sunday: CLOSED; ,,0
EAGLES PARK,8551109,5511 PARK ST N,,SAINT PETERSBURG,FL,33709-6309,United States,(727)544-1111,27.8216,-82.7536,Monday:9AM-5PM; Tuesday:9AM-5PM; Wednesday:9AM-5PM; Thursday:9AM-5PM; Friday:9AM-6PM; Saturday: CLOSED; Sunday: CLOSED; ,,0
KROGER 3,2775608,711 CAMPBELL LN STE 200,,BOWLING GREEN,KY,42104-1040,United States,(270)782-4406,36.9597,-86.4667,Monday:10AM-7PM; Tuesday:10AM-7PM; Wednesday:10AM-7PM; Thursday:10AM-7PM; Friday:10AM-7PM; Saturday:10AM-3PM; Sunday: CLOSED; ,,0
BROAD RIVER,8046823,7231 BROAD RIVER RD,,IRMO,SC,29063-9659,United States,(803)732-5001,34.0945,-81.1573,Monday:8:30AM-5PM; Tuesday:8:30AM-5PM; Wednesday:8:30AM-5PM; Thursday:8:30AM-5PM; Friday:8:30AM-6PM; Saturday: CLOSED; Sunday: CLOSED; ,,0
MCKINNEY,8712010,6251 ELDORADO PKWY,,MCKINNEY,TX,75070-5625,United States,(972)439-9701,33.1734,-96.6977,Monday:9AM-5PM; Tuesday:9AM-5PM; Wednesday:9AM-5PM; Thursday:9AM-5PM; Friday:9AM-6PM; Saturday:9AM-1PM; Sunday: CLOSED; ,,0
FISHTOWN,2810705,2330 E YORK ST,,PHILADELPHIA,PA,19125-3094,United States,(215)423-2314,39.9788,-75.1256,Monday:9AM-5PM; Tuesday:9AM-5PM; Wednesday:9AM-5PM; Thursday:9AM-6PM; Friday:9AM-6PM; Saturday:9AM-12PM; Sunday: CLOSED; ,,0
SINKING SPRING,2820122,3000 SHILLINGTON RD,,SINKING SPRING,PA,19608-1605,United States,(610)670-0700,40.3206,-76.0088,Monday:9AM-4PM; Tuesday:9AM-4PM; Wednesday:9AM-4PM; Thursday:9AM-5PM; Friday:9AM-6PM; Saturday:9AM-12PM; Sunday: CLOSED; ,,0
ICOT,8551205,5801 ULMERTON RD,,CLEARWATER,FL,33760-3905,United States,(727)532-9610,27.8945,-82.7129,Monday:9AM-5PM; Tuesday:9AM-5PM; Wednesday:9AM-5PM; Thursday:9AM-5PM; Friday:9AM-6PM; Saturday: CLOSED; Sunday: CLOSED; ,,0
TYRONE,8551102,6900 22ND AVE N,,SAINT PETERSBURG,FL,33710-3920,United States,(727)345-0500,27.7917,-82.7347,Monday:9AM-5PM; Tuesday:9AM-5PM; Wednesday:9AM-5PM; Thursday:9AM-5PM; Friday:9AM-6PM; Saturday:9AM-12PM; Sunday: CLOSED; ,,0
LOST RIVER,2775605,2750 NASHVILLE RD,,BOWLING GREEN,KY,42101-4039,United States,(270)780-1680,36.9545,-86.4734,Monday:9AM-4PM; Tuesday:9AM-4PM; Wednesday:9AM-4PM; Thursday:9AM-4PM; Friday:9AM-5PM; Saturday: CLOSED; Sunday: CLOSED; ,,0
COLUMBIANA FINA,8046821,291 HARBISON BLVD,,COLUMBIA,SC,29212-2218,United States,(803)251-1680,34.0738,-81.1574,Monday:8:30AM-5PM; Tuesday:8:30AM-5PM; Wednesday:8:30AM-5PM; Thursday:8:30AM-5PM; Friday:8:30AM-6PM; Saturday: CLOSED; Sunday: CLOSED; ,,0
HEDGCOXE,8712003,7900 PRESTON RD,,PLANO,TX,75024-2301,United States,(469)365-1400,33.0829,-96.8005,Monday:9AM-5PM; Tuesday:9AM-5PM; Wednesday:9AM-5PM; Thursday:9AM-5PM; Friday:9AM-6PM; Saturday: CLOSED; Sunday: CLOSED; ,,0
BERKSHIRE BOULE,2820101,1100A BERKSHIRE BLVD,,WYOMISSING,PA,19610-1210,United States,(610)376-9101,40.3441,-75.9737,Monday:8AM-5PM; Tuesday:8AM-5PM; Wednesday:8AM-5PM; Thursday:8AM-5PM; Friday:8AM-6PM; Saturday:8:30AM-12PM; Sunday: CLOSED; ,,0
MYERSTOWN,2800135,212 W LINCOLN AVE,,MYERSTOWN,PA,17067-2323,United States,(717)866-1101,40.377,-76.3109,Monday:9AM-4PM; Tuesday:9AM-4PM; Wednesday:9AM-4PM; Thursday:9AM-4PM; Friday:9AM-6PM; Saturday:9AM-12PM; Sunday: CLOSED; ,,0
SUNSET POINT,8551203,2475 SUNSET POINT RD,,CLEARWATER,FL,33765-1514,United States,(727)669-2979,27.9891,-82.7343,Monday:9AM-5PM; Tuesday:9AM-5PM; Wednesday:9AM-5PM; Thursday:9AM-5PM; Friday:9AM-6PM; Saturday: CLOSED; Sunday: CLOSED; ,,0
MONTICELLO,2774607,230 CUMBERLAND XING,,MONTICELLO,KY,42633-9000,United States,(606)348-8461,36.8579,-84.8438,Monday:9AM-4PM; Tuesday:9AM-4PM; Wednesday:9AM-4PM; Thursday:9AM-4PM; Friday:9AM-5PM; Saturday: CLOSED; Sunday: CLOSED; ,,0
LEXINGTON MAIN,8046817,309 COLUMBIA AVE,,LEXINGTON,SC,29072-2664,United States,(803)359-5111,33.9876,-81.2429,Monday:8:30AM-5PM; Tuesday:8:30AM-5PM; Wednesday:8:30AM-5PM; Thursday:8:30AM-5PM; Friday:8:30AM-6PM; Saturday: CLOSED; Sunday: CLOSED; ,,0
SOUTHLAKE BLVD,8710214,535 E SOUTHLAKE BLVD,,SOUTHLAKE,TX,76092-6235,United States,(817)601-9460,32.9404,-97.1435,Monday:9AM-5PM; Tuesday:9AM-5PM; Wednesday:9AM-5PM; Thursday:9AM-5PM; Friday:9AM-6PM; Saturday: CLOSED; Sunday: CLOSED; ,,0
SOUTH,2775302,602 S 12TH ST,,MURRAY,KY,42071-2916,United States,(270)767-2243,36.5997,-88.3157,Monday:9AM-4PM; Tuesday:9AM-4PM; Wednesday:9AM-4PM; Thursday:9AM-4PM; Friday:9AM-5PM; Saturday: CLOSED; Sunday: CLOSED; ,,0
NORTH,2775303,1104 CHESTNUT ST,,MURRAY,KY,42071-1961,United States,(270)767-2290,36.6176,-88.3146,Monday:9AM-4PM; Tuesday:9AM-4PM; Wednesday:9AM-4PM; Thursday:9AM-4PM; Friday:9AM-5PM; Saturday:9AM-12PM; Sunday: CLOSED; ,,0
ADAMSTOWN,2800131,2631 N READING RD,,DENVER,PA,17517-9321,United States,(717)484-4006,40.2326,-76.0782,Monday:8AM-4PM; Tuesday:8AM-4PM; Wednesday:8AM-4PM; Thursday:8AM-5PM; Friday:8AM-6PM; Saturday:9AM-12PM; Sunday: CLOSED; ,,0
EAST MAIN STREE,8046818,216 E MAIN ST,,LEXINGTON,SC,29072-3546,United States,(803)359-1725,33.9811,-81.2347,Monday:8:30AM-5PM; Tuesday:8:30AM-5PM; Wednesday:8:30AM-5PM; Thursday:8:30AM-5PM; Friday:8:30AM-6PM; Saturday: CLOSED; Sunday: CLOSED; ,,0
SOUTHLAKE KIMBA,8710201,270 N KIMBALL AVE,,SOUTHLAKE,TX,76092-6676,United States,(817)310-4800,32.9428,-97.1169,Monday:9AM-5PM; Tuesday:9AM-5PM; Wednesday:9AM-5PM; Thursday:9AM-5PM; Friday:9AM-6PM; Saturday:9AM-1PM; Sunday: CLOSED; ,,0
CONCORD,2775310,5195 HINKLEVILLE RD,,PADUCAH,KY,42001-9667,United States,(270)538-2720,37.0732,-88.699,Monday:9AM-4PM; Tuesday:9AM-4PM; Wednesday:9AM-4PM; Thursday:9AM-4PM; Friday:9AM-5PM; Saturday:9AM-12PM; Sunday: CLOSED; ,,0
BEULAVILLE,6062905,104 W MAIN ST,,BEULAVILLE,NC,28518-8802,United States,(910)298-4161,34.9239,-77.7739,Monday:9AM-5PM; Tuesday:9AM-5PM; Wednesday:9AM-5PM; Thursday:9AM-5PM; Friday:9AM-6PM; Saturday: CLOSED; Sunday: CLOSED; ,,0
COPPELL,8710212,252 N DENTON TAP RD,,COPPELL,TX,75019-2903,United States,(469)702-3025,32.9749,-96.9929,Monday:9AM-5PM; Tuesday:9AM-5PM; Wednesday:9AM-5PM; Thursday:9AM-5PM; Friday:9AM-6PM; Saturday:9AM-1PM; Sunday: CLOSED; ,,0
PADUCAH,2775308,1601 BROADWAY ST,,PADUCAH,KY,42001-2703,United States,(270)442-2300,37.0798,-88.6151,Monday:9AM-4PM; Tuesday:9AM-4PM; Wednesday:9AM-4PM; Thursday:9AM-4PM; Friday:9AM-5PM; Saturday: CLOSED; Sunday: CLOSED; ,,0
STERLING POINTE,2741206,2375 MCGRADY DR SE,,CLEVELAND,TN,37323-7147,United States,(423)478-8288,35.1287,-84.8649,Monday:9AM-5PM; Tuesday:9AM-5PM; Wednesday:9AM-5PM; Thursday:9AM-5PM; Friday:9AM-6PM; Saturday: CLOSED; Sunday: CLOSED; ,,0
MCDERMOTT & CUS,8712005,2021 W MCDERMOTT DR,,ALLEN,TX,75013-4716,United States,(972)649-0643,33.1005,-96.7306,Monday:9AM-5PM; Tuesday:9AM-5PM; Wednesday:9AM-5PM; Thursday:9AM-5PM; Friday:9AM-6PM; Saturday: CLOSED; Sunday: CLOSED; ,,0
N CLV STUART RD,2741204,86 STUART RD NE,,CLEVELAND,TN,37312-4892,United States,(423)478-8281,35.2004,-84.8454,Monday:9AM-5PM; Tuesday:9AM-5PM; Wednesday:9AM-5PM; Thursday:9AM-5PM; Friday:9AM-6PM; Saturday: CLOSED; Sunday: CLOSED; ,,0
WEST PLANO,8712006,2400 DALLAS PKWY STE 160,,PLANO,TX,75093-4389,United States,(469)304-3867,33.032,-96.8278,Monday:9AM-5PM; Tuesday:9AM-5PM; Wednesday:9AM-5PM; Thursday:9AM-5PM; Friday:9AM-6PM; Saturday: CLOSED; Sunday: CLOSED; ,,0
NORTHPORT,8621402,120 MCFARLAND BLVD,,NORTHPORT,AL,35476-3354,United States,(205)752-1174,33.2369,-87.5561,Monday:9AM-5PM; Tuesday:9AM-5PM; Wednesday:9AM-5PM; Thursday:9AM-5PM; Friday:9AM-5PM; Saturday: CLOSED; Sunday: CLOSED; ,,0
CLEVELAND ROAD,8418002,1244 N GLENWOOD AVE,,DALTON,GA,30721-2602,United States,(706)217-3871,34.7958,-84.9616,Monday:9AM-5PM; Tuesday:9AM-5PM; Wednesday:9AM-5PM; Thursday:9AM-5PM; Friday:9AM-5PM; Saturday: CLOSED; Sunday: CLOSED; ,,0
WILLOW BEND,8712013,6360 W PLANO PKWY,,PLANO,TX,75093-8204,United States,(972)818-6680,33.0268,-96.8353,Monday:9AM-5PM; Tuesday:9AM-5PM; Wednesday:9AM-5PM; Thursday:9AM-5PM; Friday:9AM-6PM; Saturday:9AM-1PM; Sunday: CLOSED; ,,0
HIGHWAY 27,2774603,3977 S HIGHWAY 27,,SOMERSET,KY,42501-6186,United States,(606)451-1302,37.0378,-84.6274,Monday:9AM-4PM; Tuesday:9AM-4PM; Wednesday:9AM-4PM; Thursday:9AM-4PM; Friday:9AM-5PM; Saturday: CLOSED; Sunday: CLOSED; ,,0
COPPERHILL,2741207,114 OCOEE ST,,COPPERHILL,TN,37317-4071,United States,(423)496-3261,34.9889,-84.3705,Monday:9AM-5PM; Tuesday:9AM-5PM; Wednesday:9AM-5PM; Thursday:9AM-5PM; Friday:9AM-5PM; Saturday: CLOSED; Sunday: CLOSED; ,,0
LANGDON,2774602,546 S HIGHWAY 27,,SOMERSET,KY,42501-3446,United States,(606)677-9705,37.0864,-84.6158,Monday:9AM-4PM; Tuesday:9AM-4PM; Wednesday:9AM-4PM; Thursday:9AM-4PM; Friday:9AM-5PM; Saturday: CLOSED; Sunday: CLOSED; ,,0
EASTSIDE,8418004,2500 E WALNUT AVE,,DALTON,GA,30721-8730,United States,(706)217-3934,34.7631,-84.9304,Monday:9AM-5PM; Tuesday:9AM-5PM; Wednesday:9AM-5PM; Thursday:9AM-5PM; Friday:9AM-5PM; Saturday:9AM-12PM; Sunday: CLOSED; ,,0
JEFFERSON CITY,2740526,263 E BROADWAY BLVD,,JEFFERSON CITY,TN,37760-2810,United States,(865)475-1300,36.1172,-83.483,Monday:9AM-5PM; Tuesday:9AM-5PM; Wednesday:9AM-5PM; Thursday:9AM-5PM; Friday:9AM-6PM; Saturday: CLOSED; Sunday: CLOSED; ,,0
DANDRIDGE,2740525,858 HIGHWAY 92 S,,DANDRIDGE,TN,37725-4621,United States,(865)344-3010,36.0254,-83.4274,Monday:9AM-5PM; Tuesday:9AM-5PM; Wednesday:9AM-5PM; Thursday:9AM-5PM; Friday:9AM-6PM; Saturday: CLOSED; Sunday: CLOSED; ,,0
KODAK,2740521,2950 WINFIELD DUNN PKWY,,KODAK,TN,37764-4309,United States,(865)932-5400,35.9627,-83.5939,Monday:8AM-4PM; Tuesday:8AM-4PM; Wednesday:8AM-4PM; Thursday:8AM-4PM; Friday:8AM-6PM; Saturday: CLOSED; Sunday: CLOSED; ,,0
HONEA PATH,8040508,21 W GREER ST,,HONEA PATH,SC,29654-1526,United States,(864)369-0555,34.4464,-82.3934,Mon: 09:00-01:15    2:30-5:00; Tue: 09:00-01:15    2:30-5:00; Wed: 09:00-01:15    2:30-5:00; Thu: 09:00-01:15    2:30-5:00; Fri: 09:00-01:15    2:30-5:00; Saturday: CLOSED; Sunday: CLOSED; ,,0
BELTON,8040505,723 ANDERSON ST,,BELTON,SC,29627-2101,United States,(864)338-2000,34.5204,-82.5063,Monday:9AM-5PM; Tuesday:9AM-5PM; Wednesday:9AM-5PM; Thursday:9AM-5PM; Friday:9AM-5PM; Saturday: CLOSED; Sunday: CLOSED; ,,0
MERCHANTS DRIVE,2740509,310 MERCHANT DR,,KNOXVILLE,TN,37912-3503,United States,(865)595-3010,36.0087,-83.9744,Monday:9AM-5PM; Tuesday:9AM-5PM; Wednesday:9AM-5PM; Thursday:9AM-5PM; Friday:9AM-6PM; Saturday: CLOSED; Sunday: CLOSED; ,,0
WILLIAMSTON/SC,8040506,1 GREENVILLE DR,,WILLIAMSTON,SC,29697-1507,United States,(864)847-4511,34.6214,-82.4714,Monday:9AM-5PM; Tuesday:9AM-5PM; Wednesday:9AM-5PM; Thursday:9AM-5PM; Friday:9AM-5PM; Saturday: CLOSED; Sunday: CLOSED; ,,0
SIMPSONVILLE,8040109,713 SE MAIN ST,,SIMPSONVILLE,SC,29681-3237,United States,(864)228-6450,34.7213,-82.252,Monday:9AM-5PM; Tuesday:9AM-5PM; Wednesday:9AM-5PM; Thursday:9AM-5PM; Friday:9AM-6PM; Saturday: CLOSED; Sunday: CLOSED; ,,0
WIND GAP GIANT,2820250,837 MALE RD,,WIND GAP,PA,18091-1500,United States,(610)863-9790,40.8393,-75.3,Monday:9AM-6PM; Tuesday:9AM-6PM; Wednesday:9AM-6PM; Thursday:9AM-6PM; Friday:9AM-6PM; Saturday:9AM-3PM; Sunday:9AM-1PM; ,,0
KNOXVILLE MAIN,2740501,900 S GAY ST # S,,KNOXVILLE,TN,37902-1810,United States,(865)766-8620,35.9616,-83.9153,Monday:9AM-5PM; Tuesday:9AM-5PM; Wednesday:9AM-5PM; Thursday:9AM-5PM; Friday:9AM-5PM; Saturday: CLOSED; Sunday: CLOSED; ,,0
HIGHWAY 81,8040502,1637 E GREENVILLE ST STE E,,ANDERSON,SC,29621-2006,United States,(864)261-4330,34.5296,-82.635,Monday:9AM-5PM; Tuesday:9AM-5PM; Wednesday:9AM-5PM; Thursday:9AM-5PM; Friday:9AM-6PM; Saturday: CLOSED; Sunday: CLOSED; ,,0
RED BANK,8046819,1120 S LAKE DR,,LEXINGTON,SC,29073-8351,United States,(803)359-1723,33.9508,-81.2345,Monday:8:30AM-5PM; Tuesday:8:30AM-5PM; Wednesday:8:30AM-5PM; Thursday:8:30AM-5PM; Friday:8:30AM-6PM; Saturday: CLOSED; Sunday: CLOSED; ,,0
FORKS TOWNSHIP,2820238,2000 SULLIVAN TRL,,EASTON,PA,18040-8338,United States,(610)258-7283,40.7196,-75.2236,Monday:9AM-5PM; Tuesday:9AM-5PM; Wednesday:9AM-5PM; Thursday:9AM-5PM; Friday:9AM-6PM; Saturday:9AM-12PM; Sunday: CLOSED; ,,0
FORT ASHBY,2790810,10016 FRANKFORT HWY,,FORT ASHBY,WV,26719-1230,United States,(304)298-3667,39.5053,-78.7713,Monday:9AM-4PM; Tuesday:9AM-4PM; Wednesday:9AM-4PM; Thursday:9AM-4PM; Friday:9AM-4PM; Saturday: CLOSED; Sunday: CLOSED; ,,0
HILLSVILLE,2090148,145 N MAIN ST,,HILLSVILLE,VA,24343-1430,United States,(276)728-3111,36.7643,-80.7352,Monday:9AM-5PM; Tuesday:9AM-5PM; Wednesday:9AM-5PM; Thursday:9AM-5PM; Friday:9AM-6PM; Saturday: CLOSED; Sunday: CLOSED; ,,0
BEARDEN,2740504,4931 KINGSTON PIKE,,KNOXVILLE,TN,37919-5112,United States,(865)212-2220,35.9408,-83.9865,Monday:9AM-5PM; Tuesday:9AM-5PM; Wednesday:9AM-5PM; Thursday:9AM-5PM; Friday:9AM-6PM; Saturday: CLOSED; Sunday: CLOSED; ,,0
PLYMOUTH,6074702,102 W MAIN ST,,PLYMOUTH,NC,27962-1326,United States,(252)793-1400,35.8656,-76.7504,Monday:9AM-5PM; Tuesday:9AM-5PM; Wednesday:9AM-5PM; Thursday:9AM-5PM; Friday:9AM-6PM; Saturday: CLOSED; Sunday: CLOSED; ,,0
PIEDMONT,8040507,900 ANDERSON ST,,PIEDMONT,SC,29673-1417,United States,(864)845-6987,34.701,-82.4751,Monday:9AM-5PM; Tuesday:9AM-5PM; Wednesday:9AM-5PM; Thursday:9AM-5PM; Friday:9AM-5PM; Saturday: CLOSED; Sunday: CLOSED; ,,0
MAULDIN,8040106,110 N MAIN ST,,MAULDIN,SC,29662-2510,United States,(864)282-3560,34.7799,-82.3099,Monday:9AM-5PM; Tuesday:9AM-5PM; Wednesday:9AM-5PM; Thursday:9AM-5PM; Friday:9AM-6PM; Saturday: CLOSED; Sunday: CLOSED; ,,0
NAZARETH BROAD,2820243,33 S BROAD ST,,NAZARETH,PA,18064-2116,United States,(610)746-7213,40.7414,-75.309,Monday:9AM-5PM; Tuesday:9AM-5PM; Wednesday:9AM-5PM; Thursday:9AM-5PM; Friday:9AM-6PM; Saturday:9AM-12PM; Sunday: CLOSED; ,,0
KEYSER,2790809,US ROUTE 220 SOUTH & EAGLES LANE,,KEYSER,WV,26726-9414,United States,(304)788-3111,39.4255,-78.9946,Monday:9AM-4PM; Tuesday:9AM-4PM; Wednesday:9AM-4PM; Thursday:9AM-4PM; Friday:9AM-5PM; Saturday:9AM-12PM; Sunday: CLOSED; ,,0
SEYMOUR,2740524,10232 CHAPMAN HWY,,SEYMOUR,TN,37865-3043,United States,(865)609-3200,35.8832,-83.7893,Monday:9AM-5PM; Tuesday:9AM-5PM; Wednesday:9AM-5PM; Thursday:9AM-5PM; Friday:9AM-6PM; Saturday: CLOSED; Sunday: CLOSED; ,,0
DOWNTOWN EASTON,2820237,101 S 3RD ST,,EASTON,PA,18042-4524,United States,(610)746-7220,40.6895,-75.2094,Monday:9AM-5PM; Tuesday:9AM-5PM; Wednesday:9AM-5PM; Thursday:9AM-5PM; Friday:9AM-5PM; Saturday: CLOSED; Sunday: CLOSED; ,,0
NORTHAMPTON CRO,2820246,3704 EASTON NAZARETH HWY,,EASTON,PA,18045-8340,United States,(610)923-8910,40.7146,-75.2845,Monday:9AM-5PM; Tuesday:9AM-5PM; Wednesday:9AM-5PM; Thursday:9AM-5PM; Friday:9AM-6PM; Saturday:9AM-12PM; Sunday: CLOSED; ,,0
WEISGARBER,2740508,1235 E WEISGARBER RD,,KNOXVILLE,TN,37909-2646,United States,(865)212-2200,35.948,-84.0135,Monday:9AM-5PM; Tuesday:9AM-5PM; Wednesday:9AM-5PM; Thursday:9AM-5PM; Friday:9AM-6PM; Saturday: CLOSED; Sunday: CLOSED; ,,0
BRODHEADSVILLE,2820232,2503 CHESTNUT ST,,BRODHEADSVILLE,PA,18322-7046,United States,(570)992-1144,40.9194,-75.4083,Monday:9AM-5PM; Tuesday:9AM-5PM; Wednesday:9AM-5PM; Thursday:9AM-5PM; Friday:9AM-6PM; Saturday:9AM-12PM; Sunday: CLOSED; ,,0
SEVIERVILLE MAI,2740518,100 E MAIN ST,,SEVIERVILLE,TN,37862-3514,United States,(865)908-2100,35.869,-83.5647,Monday:8AM-4PM; Tuesday:8AM-4PM; Wednesday:8AM-4PM; Thursday:8AM-4PM; Friday:8AM-6PM; Saturday: CLOSED; Sunday: CLOSED; ,,0
NAZARETH GIANT,2820245,859 NAZARETH PIKE,,NAZARETH,PA,18064-9005,United States,(610)759-8756,40.7304,-75.3163,Monday:9AM-6PM; Tuesday:9AM-6PM; Wednesday:9AM-6PM; Thursday:9AM-6PM; Friday:9AM-6PM; Saturday:9AM-3PM; Sunday:9AM-1PM; ,,0
MOORESTOWN,2820244,553 NAZARETH DR,,NAZARETH,PA,18064-8831,United States,(610)746-7232,40.7773,-75.3684,Monday:9AM-5PM; Tuesday:9AM-5PM; Wednesday:9AM-5PM; Thursday:9AM-5PM; Friday:9AM-6PM; Saturday:9AM-12PM; Sunday: CLOSED; ,,0
GOVERNORS CROSS,2740520,186 COLLIER DR,,SEVIERVILLE,TN,37862-6901,United States,(865)908-2160,35.8383,-83.5639,Monday:8AM-4PM; Tuesday:8AM-4PM; Wednesday:8AM-4PM; Thursday:8AM-4PM; Friday:8AM-6PM; Saturday:9AM-12PM; Sunday: CLOSED; ,,0
PALMER TOWN CEN,2820248,741 S 25TH ST,,EASTON,PA,18045-5301,United States,(610)258-4786,40.6778,-75.2472,Monday:9AM-5PM; Tuesday:9AM-5PM; Wednesday:9AM-5PM; Thursday:9AM-5PM; Friday:9AM-6PM; Saturday:9AM-12PM; Sunday: CLOSED; ,,0
ROCKY HILL,2740507,7709 S NORTHSHORE DR,,KNOXVILLE,TN,37919-8460,United States,(865)539-5640,35.9023,-84.0222,Monday:9AM-5PM; Tuesday:9AM-5PM; Wednesday:9AM-5PM; Thursday:9AM-5PM; Friday:9AM-6PM; Saturday:9AM-12PM; Sunday: CLOSED; ,,0
CROWN POINTE,2820235,3201 EMRICK BLVD,,BETHLEHEM,PA,18020-8023,United States,(484)895-0231,40.6662,-75.2966,Monday:9AM-5PM; Tuesday:9AM-5PM; Wednesday:9AM-5PM; Thursday:9AM-5PM; Friday:9AM-6PM; Saturday: CLOSED; Sunday: CLOSED; ,,0
EVARTS,2775904,107 YOCUM ST,,EVARTS,KY,40828-5904,United States,(606)837-3200,36.8643,-83.1927,"Mon: 09:00-11:00, 12:00-4:00; Tue: 09:00-11:00, 12:00-4:00; Wed: 09:00-11:00, 12:00-4:00; Thu: 09:00-11:00, 12:00-4:00; Fri: 09:00-11:00, 12:00-5:00; Saturday: CLOSED; Sunday: CLOSED; ",,0
CEDAR BLUFF,2740506,330 N CEDAR BLUFF RD,,KNOXVILLE,TN,37923-4539,United States,(865)769-8520,35.9221,-84.0924,Monday:9AM-5PM; Tuesday:9AM-5PM; Wednesday:9AM-5PM; Thursday:9AM-5PM; Friday:9AM-6PM; Saturday: CLOSED; Sunday: CLOSED; ,,0
PIGEON FORGE,2740522,3416 S RIVER RD,,PIGEON FORGE,TN,37863-3528,United States,(865)908-2170,35.7876,-83.5541,Monday:8AM-4PM; Tuesday:8AM-4PM; Wednesday:8AM-4PM; Thursday:8AM-4PM; Friday:8AM-6PM; Saturday: CLOSED; Sunday: CLOSED; ,,0
TURKEY CREEK,2740503,11113 PARKSIDE DR,,KNOXVILLE,TN,37934-1961,United States,(865)671-8300,35.9025,-84.1526,Monday:9AM-5PM; Tuesday:9AM-5PM; Wednesday:9AM-5PM; Thursday:9AM-5PM; Friday:9AM-6PM; Saturday: CLOSED; Sunday: CLOSED; ,,0
DAYTON,2091208,230 MAIN ST,,DAYTON,VA,22821,United States,(540)879-2545,38.4146,-78.9383,Monday:9AM-5PM; Tuesday:9AM-5PM; Wednesday:9AM-5PM; Thursday:9AM-5PM; Friday:9AM-6PM; Saturday: CLOSED; Sunday: CLOSED; ,,0
FARRAGUT,2740502,11140 KINGSTON PIKE,,KNOXVILLE,TN,37934-2806,United States,(865)288-6310,35.8846,-84.152,Monday:9AM-5PM; Tuesday:9AM-5PM; Wednesday:9AM-5PM; Thursday:9AM-5PM; Friday:9AM-6PM; Saturday: CLOSED; Sunday: CLOSED; ,,0
PARKVIEW,2091205,611 MOUNT CLINTON PIKE,,HARRISONBURG,VA,22802-2549,United States,(540)433-9936,38.4681,-78.8714,Monday:9AM-5PM; Tuesday:9AM-5PM; Wednesday:9AM-5PM; Thursday:9AM-5PM; Friday:9AM-6PM; Saturday: CLOSED; Sunday: CLOSED; ,,0
ALCOA,2740511,109 ASSOCIATES BLVD,,ALCOA,TN,37701-1944,United States,(865)981-7520,35.7839,-83.9868,Monday:9AM-5PM; Tuesday:9AM-5PM; Wednesday:9AM-5PM; Thursday:9AM-5PM; Friday:9AM-6PM; Saturday: CLOSED; Sunday: CLOSED; ,,0
SANFORD SOUTHSI,6018002,2940 S HORNER BLVD,,SANFORD,NC,27332-9756,United States,(919)775-1300,35.4524,-79.1371,Monday:9AM-5PM; Tuesday:9AM-5PM; Wednesday:9AM-5PM; Thursday:9AM-5PM; Friday:9AM-6PM; Saturday: CLOSED; Sunday: CLOSED; ,,0
BROADWAY,2091207,153 N MAIN ST,,BROADWAY,VA,22815-9559,United States,(540)896-7083,38.6145,-78.7982,Monday:9AM-5PM; Tuesday:9AM-5PM; Wednesday:9AM-5PM; Thursday:9AM-5PM; Friday:9AM-6PM; Saturday:9AM-12PM; Sunday: CLOSED; ,,0
HUNTERS CROSSIN,2740514,1075 HUNTERS XING,,ALCOA,TN,37701-1850,United States,(865)681-5680,35.7695,-83.9887,Monday:9AM-5PM; Tuesday:9AM-5PM; Wednesday:9AM-5PM; Thursday:9AM-5PM; Friday:9AM-6PM; Saturday: CLOSED; Sunday: CLOSED; ,,0
SANFORD MAIN,6018001,200 N HORNER BLVD,,SANFORD,NC,27330-3914,United States,(919)776-8411,35.4814,-79.1816,Monday:9AM-5PM; Tuesday:9AM-5PM; Wednesday:9AM-5PM; Thursday:9AM-5PM; Friday:9AM-6PM; Saturday: CLOSED; Sunday: CLOSED; ,,0
WOODBURY,2790110,149 MAIN ST,,WOODBURY,PA,16695,United States,(814)766-2225,40.2248,-78.3674,Monday:9AM-4PM; Tuesday:9AM-4PM; Wednesday:9AM-4PM; Thursday:9AM-4PM; Friday:9AM-6PM; Saturday: CLOSED; Sunday: CLOSED; ,,0
BEDFORD,2790111,601 E PITT ST,,BEDFORD,PA,15522-9722,United States,(814)623-2750,40.0191,-78.494,Monday:9AM-4:30PM; Tuesday:9AM-4:30PM; Wednesday:9AM-4:30PM; Thursday:9AM-4:30PM; Friday:9AM-6PM; Saturday: CLOSED; Sunday: CLOSED; ,,0
DYTNPIKE,2091204,1900 S HIGH ST,,HARRISONBURG,VA,22801-8562,United States,(540)432-6490,38.4317,-78.9046,Monday:9AM-5PM; Tuesday:9AM-5PM; Wednesday:9AM-5PM; Thursday:9AM-5PM; Friday:9AM-6PM; Saturday: CLOSED; Sunday: CLOSED; ,,0
BRIDGEWATER,2091206,111 N MAIN ST,,BRIDGEWATER,VA,22812-1303,United States,(540)828-2571,38.3824,-78.9763,Monday:9AM-5PM; Tuesday:9AM-5PM; Wednesday:9AM-5PM; Thursday:9AM-5PM; Friday:9AM-6PM; Saturday:9AM-12PM; Sunday: CLOSED; ,,0
WASHINGTON STRE,2740512,220 S WASHINGTON ST,,MARYVILLE,TN,37804-5727,United States,(865)981-7550,35.7592,-83.9661,Monday:9AM-5PM; Tuesday:9AM-5PM; Wednesday:9AM-5PM; Thursday:9AM-5PM; Friday:9AM-6PM; Saturday: CLOSED; Sunday: CLOSED; ,,0
SANFORD RIVERBI,6018003,1135 SPRING LN,,SANFORD,NC,27330-3461,United States,(919)775-6047,35.4876,-79.2021,Mon: NO DRIVE UP; Tue: NO DRIVE UP; Wed: NO DRIVE UP; Thu: NO DRIVE UP; Fri: NO DRIVE UP; Sat: NO DRIVE UP; Sun: NO DRIVE UP; ,,0
EVERETT,2790108,140 E MAIN ST,,EVERETT,PA,15537-1265,United States,(814)652-2131,40.0115,-78.3704,Monday:9AM-4:30PM; Tuesday:9AM-4:30PM; Wednesday:9AM-4:30PM; Thursday:9AM-4:30PM; Friday:9AM-6PM; Saturday: CLOSED; Sunday: CLOSED; ,,0
HARRISONBURG SO,2091203,3150 S MAIN ST,,HARRISONBURG,VA,22801-2670,United States,(540)433-1330,38.4098,-78.9039,Monday:9AM-5PM; Tuesday:9AM-5PM; Wednesday:9AM-5PM; Thursday:9AM-5PM; Friday:9AM-6PM; Saturday:9AM-12PM; Sunday: CLOSED; ,,0
HARRISONBURG MA,2091201,250 NEFF AVE,,HARRISONBURG,VA,22801-3427,United States,(540)434-6761,38.4262,-78.8485,Monday:9AM-5PM; Tuesday:9AM-5PM; Wednesday:9AM-5PM; Thursday:9AM-5PM; Friday:9AM-6PM; Saturday:9AM-12PM; Sunday: CLOSED; ,,0
DUDLEY CREEK,2740523,912 E PARKWAY,,GATLINBURG,TN,37738-4910,United States,(865)430-2560,35.7234,-83.4939,Monday:8AM-4PM; Tuesday:8AM-4PM; Wednesday:8AM-4PM; Thursday:8AM-4PM; Friday:8AM-6PM; Saturday: CLOSED; Sunday: CLOSED; ,,0
STATE COLLEGE,2820417,1705 N ATHERTON ST,,STATE COLLEGE,PA,16803-1401,United States,(814)206-7330,40.8088,-77.8988,Monday:8:30AM-5PM; Tuesday:8:30AM-5PM; Wednesday:8:30AM-5PM; Thursday:8:30AM-5PM; Friday:8:30AM-6PM; Saturday:8:30AM-12PM; Sunday: CLOSED; ,,0
SUMMERSVILLE,2723208,811 MAIN ST,,SUMMERSVILLE,WV,26651-1433,United States,(304)872-3131,38.2813,-80.8507,Monday:9AM-3PM; Tuesday:9AM-3PM; Wednesday:9AM-3PM; Thursday:9AM-3PM; Friday:9AM-5PM; Saturday: CLOSED; Sunday: CLOSED; ,,0
MOUNT JACKSON,2091213,5180 MAIN ST,,MOUNT JACKSON,VA,22842-9513,United States,(540)477-2931,38.7619,-78.626,Monday:9AM-5PM; Tuesday:9AM-5PM; Wednesday:9AM-5PM; Thursday:9AM-5PM; Friday:9AM-6PM; Saturday:9AM-12PM; Sunday: CLOSED; ,,0
BLOUNT MAIN,2740510,216 FOOTHILLS MALL DR,,MARYVILLE,TN,37801-5516,United States,(865)681-5601,35.7384,-83.9933,Monday:9AM-5PM; Tuesday:9AM-5PM; Wednesday:9AM-5PM; Thursday:9AM-5PM; Friday:9AM-6PM; Saturday:9AM-12PM; Sunday: CLOSED; ,,0
NORTH ATHERTON,2820421,1300 N ATHERTON ST,,STATE COLLEGE,PA,16803-2931,United States,(814)238-2620,40.8036,-77.8842,Monday:9AM-4:30PM; Tuesday:9AM-4:30PM; Wednesday:9AM-4:30PM; Thursday:9AM-4:30PM; Friday:9AM-5PM; Saturday:9AM-12PM; Sunday: CLOSED; ,,0
ELKTON,2091209,250 S STUART AVE,,ELKTON,VA,22827-1533,United States,(540)298-2400,38.4069,-78.6193,Monday:9AM-5PM; Tuesday:9AM-5PM; Wednesday:9AM-5PM; Thursday:9AM-5PM; Friday:9AM-6PM; Saturday:9AM-12PM; Sunday: CLOSED; ,,0
STAUNTON,2091216,125 N CENTRAL AVE,,STAUNTON,VA,24401-3308,United States,(540)851-3900,38.1507,-79.0738,Monday:9AM-5PM; Tuesday:9AM-5PM; Wednesday:9AM-5PM; Thursday:9AM-5PM; Friday:9AM-6PM; Saturday: CLOSED; Sunday: CLOSED; ,,0
COLLEGE AVENUE,2820418,116 E COLLEGE AVE,,STATE COLLEGE,PA,16801-4708,United States,(814)234-7320,40.7944,-77.8615,Monday:9AM-4:30PM; Tuesday:9AM-4:30PM; Wednesday:9AM-4:30PM; Thursday:9AM-4:30PM; Friday:9AM-5PM; Saturday: CLOSED; Sunday: CLOSED; ,,0
STAUNTON MALL,2091217,488 FRONTIER DR,,STAUNTON,VA,24401-9180,United States,(540)885-5991,38.1219,-79.0649,Monday:9AM-5PM; Tuesday:9AM-5PM; Wednesday:9AM-5PM; Thursday:9AM-5PM; Friday:9AM-6PM; Saturday:9AM-12PM; Sunday: CLOSED; ,,0
BREEZEWOOD,2790109,16296 LINCOLN HWY,,BREEZEWOOD,PA,15533,United States,(814)735-4700,39.9991,-78.2441,Monday:9AM-4:30PM; Tuesday:9AM-4:30PM; Wednesday:9AM-4:30PM; Thursday:9AM-4:30PM; Friday:9AM-5PM; Saturday: CLOSED; Sunday: CLOSED; ,,0
LURAY,2097033,1402 US HIGHWAY 211 W,,LURAY,VA,22835-5249,United States,(540)743-6561,38.6606,-78.4966,Monday:9AM-5PM; Tuesday:9AM-5PM; Wednesday:9AM-5PM; Thursday:9AM-5PM; Friday:9AM-6PM; Saturday:9AM-12PM; Sunday: CLOSED; ,,0
SOUTH ATHERTON,2820419,125 SOUTHRIDGE PLZ,,STATE COLLEGE,PA,16801-7666,United States,(814)231-0580,40.7841,-77.8309,Monday:8:30AM-5PM; Tuesday:8:30AM-5PM; Wednesday:8:30AM-5PM; Thursday:8:30AM-5PM; Friday:8:30AM-6PM; Saturday:8:30AM-12PM; Sunday: CLOSED; ,,0
WOODSTOCK,2091212,200 N MAIN ST,,WOODSTOCK,VA,22664-1419,United States,(540)459-6800,38.8835,-78.5039,Monday:9AM-5PM; Tuesday:9AM-5PM; Wednesday:9AM-5PM; Thursday:9AM-5PM; Friday:9AM-6PM; Saturday:9AM-12PM; Sunday: CLOSED; ,,0
EAST COLLEGE AV,2820423,2541 E COLLEGE AVE,,STATE COLLEGE,PA,16801-7410,United States,(814)272-2265,40.8267,-77.8084,Monday:9AM-4:30PM; Tuesday:9AM-4:30PM; Wednesday:9AM-4:30PM; Thursday:9AM-4:30PM; Friday:9AM-5PM; Saturday:9AM-12PM; Sunday: CLOSED; ,,0
WAYNESBORO,2091218,105 HOPEMAN PKWY,,WAYNESBORO,VA,22980-1720,United States,(540)949-7151,38.0769,-78.913,Monday:9AM-5PM; Tuesday:9AM-5PM; Wednesday:9AM-5PM; Thursday:9AM-5PM; Friday:9AM-6PM; Saturday:9AM-12PM; Sunday: CLOSED; ,,0
MCCONNELLSBURG,2790212,101 LINCOLN WAY W,,MC CONNELLSBURG,PA,17233-1302,United States,(717)485-3123,39.9322,-77.9994,Monday:9AM-4PM; Tuesday:9AM-4PM; Wednesday:9AM-4PM; Thursday:9AM-4PM; Friday:9AM-6PM; Saturday:9AM-12PM; Sunday: CLOSED; ,,0
STUARTS DRAFT,2091220,2857 STUARTS DRAFT HWY STE 143,,STUARTS DRAFT,VA,24477-2787,United States,(540)337-2520,38.0367,-79.0258,Monday:9AM-5PM; Tuesday:9AM-5PM; Wednesday:9AM-5PM; Thursday:9AM-5PM; Friday:9AM-6PM; Saturday: CLOSED; Sunday: CLOSED; ,,0
GREENVILLE,2091219,4033 LEE JACKSON HWY,,GREENVILLE,VA,24440-1704,United States,(540)337-4500,38.0063,-79.1546,Monday:9AM-5PM; Tuesday:9AM-5PM; Wednesday:9AM-5PM; Thursday:9AM-5PM; Friday:9AM-6PM; Saturday: CLOSED; Sunday: CLOSED; ,,0
CROZET,2022408,550 RADFORD LN,,CHARLOTTESVILLE,VA,22903-7465,United States,(434)823-4341,38.051,-78.6832,Monday:9AM-5PM; Tuesday:9AM-5PM; Wednesday:9AM-5PM; Thursday:9AM-5PM; Friday:9AM-6PM; Saturday:9AM-12PM; Sunday: CLOSED; ,,0
IND - CHARLESTO,2775136,4210 CHARLESTOWN RD,,NEW ALBANY,IN,47150-9567,United States,(812)949-9909,38.35,-85.7952,Monday:9AM-5PM; Tuesday:9AM-5PM; Wednesday:9AM-5PM; Thursday:9AM-5PM; Friday:9AM-6PM; Saturday:9AM-12PM; Sunday: CLOSED; ,,0
RUSSELL,2775103,2501 W BROADWAY,,LOUISVILLE,KY,40211-1009,United States,(502)772-1025,38.2494,-85.7932,Monday:9AM-5PM; Tuesday:9AM-5PM; Wednesday:9AM-5PM; Thursday:9AM-5PM; Friday:9AM-6PM; Saturday:9AM-12PM; Sunday: CLOSED; ,,0
ALGONQUIN,2775106,3140 WILSON AVE,,LOUISVILLE,KY,40211-1932,United States,(502)772-0131,38.2246,-85.8085,Monday:9AM-4PM; Tuesday:9AM-4PM; Wednesday:9AM-4PM; Thursday:9AM-4PM; Friday:9AM-6PM; Saturday: CLOSED; Sunday: CLOSED; ,,0
PALMETTO,8044504,3198 W PALMETTO ST,,FLORENCE,SC,29501-5938,United States,(843)773-9050,34.1693,-79.8431,Monday:9AM-5PM; Tuesday:9AM-5PM; Wednesday:9AM-5PM; Thursday:9AM-5PM; Friday:9AM-6PM; Saturday: CLOSED; Sunday: CLOSED; ,,0
SECOND LOOP RD,8044503,407 2ND LOOP RD,,FLORENCE,SC,29505-2816,United States,(843)664-2365,34.1672,-79.7683,Monday:9AM-5PM; Tuesday:9AM-5PM; Wednesday:9AM-5PM; Thursday:9AM-5PM; Friday:9AM-6PM; Saturday: CLOSED; Sunday: CLOSED; ,,0
LANCASTER,6055645,600 N MAIN ST,,LANCASTER,SC,29720-2138,United States,(803)283-9936,34.7258,-80.7739,Monday:9AM-5PM; Tuesday:9AM-5PM; Wednesday:9AM-5PM; Thursday:9AM-5PM; Friday:9AM-6PM; Saturday:9AM-12PM; Sunday: CLOSED; ,,0
WADESBORO,6061108,111 E CASWELL ST,,WADESBORO,NC,28170-2238,United States,(704)694-6521,34.9687,-80.0758,Monday:9AM-5PM; Tuesday:9AM-5PM; Wednesday:9AM-5PM; Thursday:9AM-5PM; Friday:9AM-6PM; Saturday: CLOSED; Sunday: CLOSED; ,,0
BROAD STREET,8044703,1099 BROAD ST,,SUMTER,SC,29150-2504,United States,(803)778-0953,33.9517,-80.3772,Monday:9AM-5PM; Tuesday:9AM-5PM; Wednesday:9AM-5PM; Thursday:9AM-5PM; Friday:9AM-6PM; Saturday: CLOSED; Sunday: CLOSED; ,,0
MARSHVILLE,6055705,6609 E MARSHVILLE BLVD,,MARSHVILLE,NC,28103-1199,United States,(704)624-5041,34.9859,-80.3673,Monday:9AM-5PM; Tuesday:9AM-5PM; Wednesday:9AM-5PM; Thursday:9AM-5PM; Friday:9AM-6PM; Saturday: CLOSED; Sunday: CLOSED; ,,0
WESTSIDE,8044702,498 N GUIGNARD DR,,SUMTER,SC,29150-4058,United States,(803)773-1956,33.9325,-80.3691,Monday:9AM-5PM; Tuesday:9AM-5PM; Wednesday:9AM-5PM; Thursday:9AM-5PM; Friday:9AM-6PM; Saturday: CLOSED; Sunday: CLOSED; ,,0
MONROE BLVD,6055702,301 W ROOSEVELT BLVD,,MONROE,NC,28110-3535,United States,(704)289-7220,34.9853,-80.5295,Monday:9AM-5PM; Tuesday:9AM-5PM; Wednesday:9AM-5PM; Thursday:9AM-5PM; Friday:9AM-6PM; Saturday: CLOSED; Sunday: CLOSED; ,,0
MONROE CH-MAIN,6055701,512 N HAYNE ST,,MONROE,NC,28112-4836,United States,(704)289-7240,34.9842,-80.549,Monday:9AM-5PM; Tuesday:9AM-5PM; Wednesday:9AM-5PM; Thursday:9AM-5PM; Friday:9AM-6PM; Saturday: CLOSED; Sunday: CLOSED; ,,0
DAUPHIN,2800236,800 PETERS MOUNTAIN RD,,DAUPHIN,PA,17018-9502,United States,(717)921-8901,40.3752,-76.9325,Monday:9AM-3PM; Tuesday:9AM-3PM; Wednesday:9AM-3PM; Thursday:9AM-3PM; Friday:9AM-5PM; Saturday:9AM-12PM; Sunday: CLOSED; ,,0
HALIFAX,2800235,3679 PETERS MOUNTAIN RD,,HALIFAX,PA,17032-9044,United States,(717)896-3454,40.4511,-76.9269,Monday:9AM-3PM; Tuesday:9AM-3PM; Wednesday:9AM-3PM; Thursday:9AM-3PM; Friday:9AM-5PM; Saturday:9AM-12PM; Sunday: CLOSED; ,,0
FALMOUTH,2780131,515 BARKLEY ST,,FALMOUTH,KY,41040-1305,United States,(859)654-2500,38.6767,-84.3405,Monday:9AM-5PM; Tuesday:9AM-5PM; Wednesday:9AM-5PM; Thursday:9AM-5PM; Friday:9AM-6PM; Saturday:9AM-12PM; Sunday: CLOSED; ,,0
MONROE MALL,6055703,2123 W ROOSEVELT BLVD,,MONROE,NC,28110-2712,United States,(704)289-7300,35.0067,-80.5601,Monday:9AM-5PM; Tuesday:9AM-5PM; Wednesday:9AM-5PM; Thursday:9AM-5PM; Friday:9AM-6PM; Saturday:9AM-12PM; Sunday: CLOSED; ,,0
S. LEE STREET M,6061101,116 S LEE ST,,ROCKINGHAM,NC,28379-3636,United States,(910)997-8160,34.9387,-79.7752,Monday:9AM-5PM; Tuesday:9AM-5PM; Wednesday:9AM-5PM; Thursday:9AM-5PM; Friday:9AM-6PM; Saturday: CLOSED; Sunday: CLOSED; ,,0
PELION,8046820,617 PINE ST,,PELION,SC,29123-8983,United States,(803)894-6263,33.7645,-81.246,Monday:9AM-5PM; Tuesday:9AM-5PM; Wednesday:9AM-2PM; Thursday:9AM-5PM; Friday:9AM-6PM; Saturday: CLOSED; Sunday: CLOSED; ,,0
HAMPDEN MARKETP,2800227,4305 MARKETPLACE WAY,,ENOLA,PA,17025-2456,United States,(717)909-0560,40.29,-76.9757,Monday:9AM-5PM; Tuesday:9AM-5PM; Wednesday:9AM-5PM; Thursday:9AM-5PM; Friday:9AM-6PM; Saturday:9AM-12PM; Sunday: CLOSED; ,,0
ALEXANDRIA,2780109,7612 ALEXANDRIA PIKE,,ALEXANDRIA,KY,41001-1044,United States,(859)635-4117,38.9785,-84.393,Monday:9AM-5PM; Tuesday:9AM-5PM; Wednesday:9AM-5PM; Thursday:9AM-5PM; Friday:9AM-6PM; Saturday:9AM-12PM; Sunday: CLOSED; ,,0
ROCKINGHAM ROAD,6061102,920 ROCKINGHAM RD,,ROCKINGHAM,NC,28379-4359,United States,(910)997-8130,34.9297,-79.7579,Monday:9AM-5PM; Tuesday:9AM-5PM; Wednesday:9AM-5PM; Thursday:9AM-5PM; Friday:9AM-6PM; Saturday: CLOSED; Sunday: CLOSED; ,,0
SWANSEA,8046824,235 S CHURCH ST,,SWANSEA,SC,29160-8860,United States,(803)568-2190,33.737,-81.0999,Monday:9AM-5PM; Tuesday:9AM-5PM; Wednesday:9AM-2PM; Thursday:9AM-5PM; Friday:9AM-6PM; Saturday: CLOSED; Sunday: CLOSED; ,,0
SYLVANIA,8429605,105 S MAIN ST,,SYLVANIA,GA,30467-1968,United States,(912)564-2068,32.7503,-81.6356,Monday:9AM-4PM; Tuesday:9AM-4PM; Wednesday:9AM-4PM; Thursday:9AM-4PM; Friday:9AM-5PM; Saturday: CLOSED; Sunday: CLOSED; ,,0
SPRINGFIELD,2774010,803 BARDSTOWN RD,,SPRINGFIELD,KY,40069-1513,United States,(859)336-3971,37.69,-85.2337,Monday:9AM-4PM; Tuesday:9AM-4PM; Wednesday:9AM-4PM; Thursday:9AM-4PM; Friday:9AM-5PM; Saturday: CLOSED; Sunday: CLOSED; ,,0
NICHOLSON,2780125,12010 MADISON PIKE,,INDEPENDENCE,KY,41051-9769,United States,(859)356-0700,38.9058,-84.5452,Monday:9AM-5PM; Tuesday:9AM-5PM; Wednesday:9AM-5PM; Thursday:9AM-5PM; Friday:9AM-6PM; Saturday: CLOSED; Sunday: CLOSED; ,,0
FAIRWAY PLAZA,8721405,5714 FAIRMONT PKWY,,PASADENA,TX,77505-3906,United States,(281)668-1236,29.6485,-95.1538,Monday:9AM-5PM; Tuesday:9AM-5PM; Wednesday:9AM-5PM; Thursday:9AM-5PM; Friday:9AM-6PM; Saturday:9AM-1PM; Sunday: CLOSED; ,,0
WAXHAW,6055706,520 N BROOME ST,,WAXHAW,NC,28173-7376,United States,(704)843-2166,34.929,-80.7438,Monday:9AM-5PM; Tuesday:9AM-5PM; Wednesday:9AM-5PM; Thursday:9AM-5PM; Friday:9AM-6PM; Saturday: CLOSED; Sunday: CLOSED; ,,0
HAMLET,6061103,8 RALEIGH ST,,HAMLET,NC,28345-2756,United States,(910)582-0184,34.8856,-79.6981,Monday:9AM-5PM; Tuesday:9AM-5PM; Wednesday:9AM-5PM; Thursday:9AM-5PM; Friday:9AM-6PM; Saturday: CLOSED; Sunday: CLOSED; ,,0
SPRINGDALE,8046405,3300 PLATT SPRINGS RD,,WEST COLUMBIA,SC,29170-2204,United States,(803)251-1690,33.9558,-81.1184,Monday:8:30AM-5PM; Tuesday:8:30AM-5PM; Wednesday:8:30AM-5PM; Thursday:8:30AM-5PM; Friday:8:30AM-6PM; Saturday: CLOSED; Sunday: CLOSED; ,,0
LANSDOWNE,2774002,3329 TATES CREEK RD,,LEXINGTON,KY,40502-3407,United States,(859)269-3448,37.9963,-84.4967,Monday:9AM-4PM; Tuesday:9AM-4PM; Wednesday:9AM-4PM; Thursday:9AM-4PM; Friday:9AM-4PM; Saturday: CLOSED; Sunday: CLOSED; ,,0
NICHOLASVILLE R,2774007,2304 NORMAN LN,,LEXINGTON,KY,40503-2456,United States,(859)260-2800,38.0055,-84.5187,Monday:9AM-4PM; Tuesday:9AM-4PM; Wednesday:9AM-4PM; Thursday:9AM-4PM; Friday:9AM-4PM; Saturday:9AM-12PM; Sunday: CLOSED; ,,0
INDEPENDENCE,2780129,1700 DECLARATION DR,,INDEPENDENCE,KY,41051-8441,United States,(859)363-4500,38.9286,-84.5483,Monday:10AM-7PM; Tuesday:10AM-7PM; Wednesday:10AM-7PM; Thursday:10AM-7PM; Friday:10AM-7PM; Saturday:10AM-5PM; Sunday:11AM-4PM; ,,0
PASADENA,8721401,4960 FAIRMONT PKWY,,PASADENA,TX,77505-3700,United States,(281)668-3233,29.6494,-95.1681,Monday:9AM-5PM; Tuesday:9AM-5PM; Wednesday:9AM-5PM; Thursday:9AM-5PM; Friday:9AM-5PM; Saturday: CLOSED; Sunday: CLOSED; ,,0
WEBSTER,8721402,1333 W BAY AREA BLVD,,WEBSTER,TX,77598-3854,United States,(281)724-2440,29.539,-95.1439,Monday:9AM-5PM; Tuesday:9AM-5PM; Wednesday:9AM-5PM; Thursday:9AM-5PM; Friday:9AM-6PM; Saturday:9AM-1PM; Sunday: CLOSED; ,,0
GRAHAM,6043402,220 S MAIN ST,,GRAHAM,NC,27253-3302,United States,(336)570-5885,36.0664,-79.3996,Monday:9AM-5PM; Tuesday:9AM-5PM; Wednesday:9AM-5PM; Thursday:9AM-5PM; Friday:9AM-6PM; Saturday: CLOSED; Sunday: CLOSED; ,,0
CLEMSON ROAD,8046803,205 FORUM DR,,COLUMBIA,SC,29229-7934,United States,(803)462-3597,34.1311,-80.8757,Monday:8:30AM-5PM; Tuesday:8:30AM-5PM; Wednesday:8:30AM-5PM; Thursday:8:30AM-5PM; Friday:8:30AM-6PM; Saturday: CLOSED; Sunday: CLOSED; ,,0
BEAUMONT,2774003,937 MIDNIGHT PASS,,LEXINGTON,KY,40513-1935,United States,(859)224-8292,38.0159,-84.5569,Monday:9AM-4PM; Tuesday:9AM-4PM; Wednesday:9AM-4PM; Thursday:9AM-4PM; Friday:9AM-4PM; Saturday: CLOSED; Sunday: CLOSED; ,,0
HUMBLE,8721505,9467 FM 1960 BYPASS RD W,,HUMBLE,TX,77338-4093,United States,(281)706-8000,30.0049,-95.2837,Monday:9AM-5PM; Tuesday:9AM-5PM; Wednesday:9AM-5PM; Thursday:9AM-5PM; Friday:9AM-6PM; Saturday:9AM-1PM; Sunday: CLOSED; ,,0
HARRISBURG,8721403,6800 HARRISBURG BLVD,,HOUSTON,TX,77011-4626,United States,(713)332-9882,29.7368,-95.3061,Monday:9AM-5PM; Tuesday:9AM-5PM; Wednesday:9AM-5PM; Thursday:9AM-5PM; Friday:9AM-5PM; Saturday: CLOSED; Sunday: CLOSED; ,,0
WESLEY CHAPEL,6055704,6304 WEDDINGTON RD,,MATTHEWS,NC,28104-7925,United States,(704)243-7588,34.9996,-80.6977,Monday:9AM-5PM; Tuesday:9AM-5PM; Wednesday:9AM-5PM; Thursday:9AM-5PM; Friday:9AM-6PM; Saturday:9AM-12PM; Sunday: CLOSED; ,,0
BLAZER,2774005,3285 BLAZER PKWY,,LEXINGTON,KY,40509-1849,United States,(859)263-2290,38.003,-84.4381,Monday:9AM-4PM; Tuesday:9AM-4PM; Wednesday:9AM-4PM; Thursday:9AM-4PM; Friday:9AM-4PM; Saturday: CLOSED; Sunday: CLOSED; ,,0
HAMBURG,2774006,2489 SIR BARTON WAY,,LEXINGTON,KY,40509-2267,United States,(859)514-5280,38.0319,-84.4209,Monday:9AM-4PM; Tuesday:9AM-4PM; Wednesday:9AM-4PM; Thursday:9AM-4PM; Friday:9AM-4PM; Saturday: CLOSED; Sunday: CLOSED; ,,0
OLD SPANISH TRA,8720914,6118B SCOTT ST,,HOUSTON,TX,77021-2628,United States,(346)201-7417,29.7007,-95.3598,Monday:9AM-5PM; Tuesday:9AM-5PM; Wednesday:9AM-5PM; Thursday:9AM-5PM; Friday:9AM-5PM; Saturday: CLOSED; Sunday: CLOSED; ,,0
INDIAN LAND,6055647,7715 CHARLOTTE HWY,,INDIAN LAND,SC,29707-9538,United States,(803)802-1700,34.9362,-80.8371,Monday:9AM-5PM; Tuesday:9AM-5PM; Wednesday:9AM-5PM; Thursday:9AM-5PM; Friday:9AM-6PM; Saturday:9AM-12PM; Sunday: CLOSED; ,,0
LONDON,2774605,840 WHITLEY ST,,LONDON,KY,40741-2632,United States,(606)878-7646,37.1066,-84.084,Monday:9AM-4PM; Tuesday:9AM-4PM; Wednesday:9AM-4PM; Thursday:9AM-4PM; Friday:9AM-5PM; Saturday: CLOSED; Sunday: CLOSED; ,,0
GREENSPOINT,8721503,323 N SAM HOUSTON PKWY E,,HOUSTON,TX,77060-2401,United States,(281)668-0000,29.9407,-95.3994,Monday:9AM-5PM; Tuesday:9AM-5PM; Wednesday:9AM-5PM; Thursday:9AM-5PM; Friday:9AM-5PM; Saturday: CLOSED; Sunday: CLOSED; ,,0
TWO NOTCH,8046816,8910 TWO NOTCH RD,,COLUMBIA,SC,29223-6366,United States,(803)251-1640,34.0889,-80.9287,Monday:8:30AM-5PM; Tuesday:8:30AM-5PM; Wednesday:8:30AM-5PM; Thursday:8:30AM-5PM; Friday:8:30AM-6PM; Saturday: CLOSED; Sunday: CLOSED; ,,0
IRVINE,2774011,119 BROADWAY ST,,IRVINE,KY,40336-1057,United States,(606)723-2171,37.7006,-83.9745,Monday:9AM-4PM; Tuesday:9AM-4PM; Wednesday:9AM-4PM; Thursday:9AM-4PM; Friday:9AM-5PM; Saturday: CLOSED; Sunday: CLOSED; ,,0
KIRBY DRIVE,8720910,3730 KIRBY DR STE 100,,HOUSTON,TX,77098-3930,United States,(713)345-1458,29.733,-95.4192,Monday:9AM-5PM; Tuesday:9AM-5PM; Wednesday:9AM-5PM; Thursday:9AM-5PM; Friday:9AM-5PM; Saturday: CLOSED; Sunday: CLOSED; ,,0
NORTHEAST,8046802,8920 FARROW RD,,COLUMBIA,SC,29203-9729,United States,(803)462-3580,34.1074,-80.9509,Monday:8:30AM-5PM; Tuesday:8:30AM-5PM; Wednesday:8:30AM-5PM; Thursday:8:30AM-5PM; Friday:8:30AM-6PM; Saturday: CLOSED; Sunday: CLOSED; ,,0
HOLLY PLAZA,6060511,1700 S MAIN ST,,LAURINBURG,NC,28352-5408,United States,(910)277-1401,34.753,-79.4778,Monday:9AM-5PM; Tuesday:9AM-5PM; Wednesday:9AM-5PM; Thursday:9AM-5PM; Friday:9AM-6PM; Saturday: CLOSED; Sunday: CLOSED; ,,0
WINCHESTER,2774008,30 W BROADWAY ST,,WINCHESTER,KY,40391-1971,United States,(859)744-3521,37.9937,-84.1784,Monday:9AM-4PM; Tuesday:9AM-4PM; Wednesday:9AM-4PM; Thursday:9AM-4PM; Friday:9AM-5PM; Saturday: CLOSED; Sunday: CLOSED; ,,0
INDIAN TRAIL,6055707,200 INDIAN TRAIL RD N,,INDIAN TRAIL,NC,28079-7616,United States,(704)821-7601,35.0788,-80.6664,Monday:9AM-5PM; Tuesday:9AM-5PM; Wednesday:9AM-5PM; Thursday:9AM-5PM; Friday:9AM-6PM; Saturday:9AM-12PM; Sunday: CLOSED; ,,0
LAURINBURG,6060510,400 S MAIN ST,,LAURINBURG,NC,28352-4134,United States,(910)276-2775,34.7739,-79.4626,Monday:9AM-5PM; Tuesday:9AM-5PM; Wednesday:9AM-5PM; Thursday:9AM-5PM; Friday:9AM-6PM; Saturday: CLOSED; Sunday: CLOSED; ,,0
HAMILTON,2810918,1850 NEW JERSEY 33,,TRENTON,NJ,08690,United States,(609)890-1333,40.2246,-74.6507,Monday:9AM-5PM; Tuesday:9AM-5PM; Wednesday:9AM-5PM; Thursday:9AM-5PM; Friday:9AM-6PM; Saturday:9AM-12PM; Sunday: CLOSED; ,,0
EWING,2810917,2075 PENNINGTON RD,,EWING,NJ,08618-1108,United States,(609)883-7033,40.2761,-74.7811,Monday:9AM-5PM; Tuesday:9AM-5PM; Wednesday:9AM-5PM; Thursday:9AM-5PM; Friday:9AM-6PM; Saturday:9AM-12PM; Sunday: CLOSED; ,,0
FLORENCE,2810916,700 DELAWARE AVE,,ROEBLING,NJ,08554-2004,United States,(609)499-0355,40.1068,-74.7829,Monday:9AM-5PM; Tuesday:9AM-5PM; Wednesday:9AM-5PM; Thursday:9AM-5PM; Friday:9AM-6PM; Saturday:9AM-12PM; Sunday: CLOSED; ,,0
NEWTOWN,2810912,950 NEWTOWN YARDLEY RD,,NEWTOWN,PA,18940-1774,United States,(215)968-4444,40.2318,-74.8938,Monday:9AM-5PM; Tuesday:9AM-5PM; Wednesday:9AM-5PM; Thursday:9AM-5PM; Friday:9AM-6PM; Saturday:9AM-12PM; Sunday: CLOSED; ,,0
BRISTOL,2810905,200 RADCLIFFE ST,,BRISTOL,PA,19007-5014,United States,(215)781-6000,40.095,-74.8555,Monday:9AM-5PM; Tuesday:9AM-5PM; Wednesday:9AM-5PM; Thursday:9AM-5PM; Friday:9AM-6PM; Saturday: CLOSED; Sunday: CLOSED; ,,0
SCOTTSBORO,8621210,507 S BROAD ST,,SCOTTSBORO,AL,35768-1707,United States,(256)259-4800,34.6691,-86.0348,Monday:8:30AM-4:30PM; Tuesday:8:30AM-4:30PM; Wednesday:8:30AM-4:30PM; Thursday:8:30AM-4:30PM; Friday:8:30AM-5PM; Saturday: CLOSED; Sunday: CLOSED; ,,0
LUMBERTON,2810313,160 MOUNT HOLLY BY PASS,,LUMBERTON,NJ,08048-1112,United States,(609)702-7971,39.9804,-74.8039,Monday:9AM-5PM; Tuesday:9AM-5PM; Wednesday:9AM-5PM; Thursday:9AM-5PM; Friday:9AM-6PM; Saturday:9AM-1PM; Sunday: CLOSED; ,,0
NORTHWEST,8621204,3419 PULASKI PIKE NW,,HUNTSVILLE,AL,35810-3254,United States,(256)551-4910,34.7709,-86.6172,Monday:9AM-5PM; Tuesday:9AM-5PM; Wednesday:9AM-5PM; Thursday:9AM-5PM; Friday:9AM-5:30PM; Saturday: CLOSED; Sunday: CLOSED; ,,0
LANGHORNE,2810909,94 N FLOWERS MILL RD,,LANGHORNE,PA,19047-1601,United States,(215)752-5700,40.181,-74.9049,Monday:9AM-5PM; Tuesday:9AM-5PM; Wednesday:9AM-5PM; Thursday:9AM-5PM; Friday:9AM-6PM; Saturday:9AM-12PM; Sunday: CLOSED; ,,0
HUNTSVILLE - MA,8621201,305 CHURCH ST SW,,HUNTSVILLE,AL,35801-4924,United States,(256)551-4700,34.727,-86.5863,Monday:9AM-5PM; Tuesday:9AM-5PM; Wednesday:9AM-5PM; Thursday:9AM-5PM; Friday:9AM-5PM; Saturday: CLOSED; Sunday: CLOSED; ,,0
WESTBURY,8621203,901 AIRPORT RD SW,,HUNTSVILLE,AL,35802-1315,United States,(256)551-4915,34.6908,-86.5751,Monday:9AM-5PM; Tuesday:9AM-5PM; Wednesday:9AM-5PM; Thursday:9AM-5PM; Friday:9AM-5:30PM; Saturday:9AM-12PM; Sunday: CLOSED; ,,0
MADISON SQUARE,8621206,4955 UNIVERSITY DR NW,,HUNTSVILLE,AL,35816-1805,United States,(256)551-4921,34.739,-86.6597,Monday:9AM-5PM; Tuesday:9AM-5PM; Wednesday:9AM-5PM; Thursday:9AM-5PM; Friday:9AM-5:30PM; Saturday: CLOSED; Sunday: CLOSED; ,,0
SUNCREST,2790805,466 CHESTNUT RIDGE RD,,MORGANTOWN,WV,26505-2767,United States,(304)599-6200,39.6578,-79.9632,Monday:9AM-4PM; Tuesday:9AM-4PM; Wednesday:9AM-4PM; Thursday:9AM-4PM; Friday:9AM-4PM; Saturday: CLOSED; Sunday: CLOSED; ,,0
PIERPONT,2790808,1000 MID ATLANTIC DR,,MORGANTOWN,WV,26508-4286,United States,(304)212-3530,39.6468,-79.8921,Monday:9AM-4PM; Tuesday:9AM-4PM; Wednesday:9AM-4PM; Thursday:9AM-4PM; Friday:9AM-4PM; Saturday: CLOSED; Sunday: CLOSED; ,,0
SABRATON,2790804,1806 EARL L CORE RD,,MORGANTOWN,WV,26505-5892,United States,(304)292-1000,39.6216,-79.9235,Monday:9AM-4PM; Tuesday:9AM-4PM; Wednesday:9AM-4PM; Thursday:9AM-4PM; Friday:9AM-4PM; Saturday:9AM-12PM; Sunday: CLOSED; ,,0
REEDSVILLE,2790803,12256 VETERAN'S MEMORIAL HWY,,REEDSVILLE,WV,26547,United States,(304)864-5050,39.5173,-79.7956,Monday:9AM-3PM; Tuesday:9AM-3PM; Wednesday:9AM-3PM; Thursday:9AM-3PM; Friday:9AM-4PM; Saturday: CLOSED; Sunday: CLOSED; ,,0
CAMERON,2791003,21 MAIN ST,,CAMERON,WV,26033-1025,United States,(304)686-3351,39.8269,-80.5667,Monday:9AM-3PM; Tuesday:9AM-3PM; Wednesday:9AM-3PM; Thursday:9AM-3PM; Friday:9AM-5PM; Saturday: CLOSED; Sunday: CLOSED; ,,0
KINGWOOD,2790802,114 E MAIN ST,,KINGWOOD,WV,26537-1117,United States,(304)329-2000,39.472,-79.6852,Monday:9AM-3PM; Tuesday:9AM-3PM; Wednesday:9AM-3PM; Thursday:9AM-3PM; Friday:9AM-5PM; Saturday: CLOSED; Sunday: CLOSED; ,,0
FAIRMONT,2790906,401 4TH ST,,FAIRMONT,WV,26554-2816,United States,(304)368-3200,39.4797,-80.1475,Monday:9AM-4PM; Tuesday:9AM-4PM; Wednesday:9AM-4PM; Thursday:9AM-4PM; Friday:9AM-4PM; Saturday: CLOSED; Sunday: CLOSED; ,,0
MCHENRY,2790106,24541 GARRETT HWY,,MC HENRY,MD,21541-1331,United States,(301)387-3456,39.561,-79.3572,Monday:9AM-5PM; Tuesday:9AM-5PM; Wednesday:9AM-5PM; Thursday:9AM-5PM; Friday:9AM-5PM; Saturday: CLOSED; Sunday: CLOSED; ,,0
FARMINGTON,2790908,3300 HUSKY HWY,,FARMINGTON,WV,26571-8010,United States,(304)825-6565,39.5129,-80.2605,Monday:9AM-3PM; Tuesday:9AM-3PM; Wednesday:9AM-3PM; Thursday:9AM-3PM; Friday:9AM-3PM; Saturday: CLOSED; Sunday: CLOSED; ,,0
MAIN ST,2791006,1145 MAIN ST,,WHEELING,WV,26003-2703,United States,(304)232-1234,40.0674,-80.7238,Monday:9AM-4PM; Tuesday:9AM-4PM; Wednesday:9AM-4PM; Thursday:9AM-4PM; Friday:9AM-4PM; Saturday: CLOSED; Sunday: CLOSED; ,,0
BRIDGEPORT VALL,2790902,405 W MAIN ST,,BRIDGEPORT,WV,26330-1752,United States,(304)842-6277,39.282,-80.2569,Monday:9AM-4PM; Tuesday:9AM-4PM; Wednesday:9AM-4PM; Thursday:9AM-4PM; Friday:9AM-4PM; Saturday: CLOSED; Sunday: CLOSED; ,,0
WATER ST. DRIVE THRU,2791006,1226 WATER ST,,WHEELING,WV,26003-2714,United States,(304)233-3218,40.0668,-80.7245,Mon: NO DRIVE UP; Tue: NO DRIVE UP; Wed: NO DRIVE UP; Thu: NO DRIVE UP; Fri: NO DRIVE UP; Sat: NO DRIVE UP; Sun: NO DRIVE UP; ,,0
TERRA ALTA,2790806,1003 E STATE AVE,,TERRA ALTA,WV,26764-1438,United States,(304)789-2452,39.4431,-79.5384,Monday:9AM-3PM; Tuesday:9AM-3PM; Wednesday:9AM-3PM; Thursday:9AM-3PM; Friday:9AM-5PM; Saturday: CLOSED; Sunday: CLOSED; ,,0
MEADOWBROOK MAL,2790903,2015 MEADOWBROOK MALL,,BRIDGEPORT,WV,26330-9781,United States,(304)842-7315,39.3146,-80.2742,Monday:9AM-4PM; Tuesday:9AM-4PM; Wednesday:9AM-4PM; Thursday:9AM-4PM; Friday:9AM-4PM; Saturday:9AM-12PM; Sunday: CLOSED; ,,0
GORDONSVILLE,2097026,202 S MAIN ST,,GORDONSVILLE,VA,22942-9152,United States,(540)832-2030,38.1342,-78.1862,Monday:9AM-3PM; Tuesday:9AM-3PM; Wednesday:9AM-3PM; Thursday:9AM-3PM; Friday:9AM-6PM; Saturday: CLOSED; Sunday: CLOSED; ,,0
MOUNDSVILLE,2791001,414 JEFFERSON AVE,,MOUNDSVILLE,WV,26041-1642,United States,(304)845-2470,39.9204,-80.7427,Monday:9AM-3PM; Tuesday:9AM-3PM; Wednesday:9AM-3PM; Thursday:9AM-3PM; Friday:9AM-4PM; Saturday: CLOSED; Sunday: CLOSED; ,,0
SALEM,2790904,200 RAILROAD ST,,SALEM,WV,26426-1361,United States,(304)782-1081,39.282,-80.5564,Monday:9AM-4PM; Tuesday:9AM-4PM; Wednesday:9AM-4PM; Thursday:9AM-4PM; Friday:9AM-4PM; Saturday: CLOSED; Sunday: CLOSED; ,,0
TAYLOR COUNTY G,2790905,7 HARMAN CTR,,GRAFTON,WV,26354-1559,United States,(304)265-3400,39.3461,-80.0035,Monday:9AM-4PM; Tuesday:9AM-4PM; Wednesday:9AM-4PM; Thursday:9AM-4PM; Friday:9AM-5PM; Saturday: CLOSED; Sunday: CLOSED; ,,0
MINERAL,2022417,223 MINERAL AVENUE,,MINERAL,VA,23117,United States,(540)894-5411,38.0097,-77.9091,Monday:9AM-5PM; Tuesday:9AM-5PM; Wednesday:9AM-5PM; Thursday:9AM-5PM; Friday:9AM-6PM; Saturday: CLOSED; Sunday: CLOSED; ,,0
GLEN DALE,2791004,20 WHEELING AVE,,GLEN DALE,WV,26038-1529,United States,(304)845-1288,39.9553,-80.7539,Monday:9AM-4PM; Tuesday:9AM-4PM; Wednesday:9AM-4PM; Thursday:9AM-4PM; Friday:9AM-6PM; Saturday:9AM-12PM; Sunday: CLOSED; ,,0
LAFAYETTE AVE.,2791001,7TH & LAFAYETTE AVE,,MOUNDSVILLE,WV,26041,United States,(304)845-2510,39.9183,-80.7466,Monday:8:30AM-5PM; Tuesday:8:30AM-5PM; Wednesday:8:30AM-5PM; Thursday:8:30AM-5PM; Friday:8:30AM-6PM; Saturday:8:30AM-12PM; Sunday: CLOSED; ,,0
WHITEHALL,2790907,2669 WHITE HALL BLVD,,WHITE HALL,WV,26554-8225,United States,(304)363-5586,39.4275,-80.1882,Monday:9AM-4PM; Tuesday:9AM-4PM; Wednesday:9AM-4PM; Thursday:9AM-4PM; Friday:9AM-4PM; Saturday:9AM-12PM; Sunday: CLOSED; ,,0
CRAIGSVILLE,2723209,457 CRAIGSVILLE RD,,CRAIGSVILLE,WV,26205-0512,United States,(304)742-5405,38.3238,-80.6533,Monday:9AM-3PM; Tuesday:9AM-3PM; Wednesday:9AM-3PM; Thursday:9AM-3PM; Friday:9AM-6PM; Saturday: CLOSED; Sunday: CLOSED; ,,0
SWAINSBORO,8429606,205 S MAIN ST,,SWAINSBORO,GA,30401-3614,United States,(478)237-6412,32.5957,-82.3324,Monday:9AM-4PM; Tuesday:9AM-4PM; Wednesday:9AM-4PM; Thursday:9AM-4PM; Friday:9AM-5PM; Saturday: CLOSED; Sunday: CLOSED; ,,0
NORTHSIDE,2723210,815 NORTHSIDE DR,,SUMMERSVILLE,WV,26651-2001,United States,(304)872-4200,38.3052,-80.8325,Monday:9AM-4:30PM; Tuesday:9AM-4:30PM; Wednesday:9AM-4:30PM; Thursday:9AM-4:30PM; Friday:9AM-6PM; Saturday:9AM-1PM; Sunday: CLOSED; ,,0
VIDALIA,8429603,900 E 1ST ST,,VIDALIA,GA,30474-4207,United States,(912)537-2221,32.2128,-82.4021,Monday:9AM-4PM; Tuesday:9AM-4PM; Wednesday:9AM-4PM; Thursday:9AM-4PM; Friday:9AM-5PM; Saturday: CLOSED; Sunday: CLOSED; ,,0
JASPER MAIN,8621405,3901 HIGHWAY 78 E,,JASPER,AL,35501-8926,United States,(205)221-4700,33.8388,-87.2314,Monday:9AM-4:30PM; Tuesday:9AM-4:30PM; Wednesday:9AM-4:30PM; Thursday:9AM-4:30PM; Friday:9AM-4:30PM; Saturday: CLOSED; Sunday: CLOSED; ,,0
METTER,8429604,205 S LEWIS ST,,METTER,GA,30439-4624,United States,(912)685-4005,32.3973,-82.0612,Monday:9AM-4PM; Tuesday:9AM-4PM; Wednesday:9AM-4PM; Thursday:9AM-4PM; Friday:9AM-6PM; Saturday: CLOSED; Sunday: CLOSED; ,,0
WARNER ROBINS R,8428104,127 RUSSELL PKWY,,WARNER ROBINS,GA,31088-6164,United States,(478)929-5400,32.5934,-83.627,Monday:9AM-5PM; Tuesday:9AM-5PM; Wednesday:9AM-5PM; Thursday:9AM-5PM; Friday:9AM-5PM; Saturday: CLOSED; Sunday: CLOSED; ,,0
LUBECK,2722203,1605 HARRIS HWY,,PARKERSBURG,WV,26101-7615,United States,(304)863-5341,39.2363,-81.6299,Monday:9AM-3PM; Tuesday:9AM-3PM; Wednesday:9AM-3PM; Thursday:9AM-3PM; Friday:9AM-6PM; Saturday: CLOSED; Sunday: CLOSED; ,,0
POINT PLEASANT,2722510,610 VIAND ST,,POINT PLEASANT,WV,25550-1128,United States,(304)675-2500,38.8448,-82.1367,Monday:9AM-4PM; Tuesday:9AM-4PM; Wednesday:9AM-4PM; Thursday:9AM-4PM; Friday:9AM-5PM; Saturday: CLOSED; Sunday: CLOSED; ,,0
RAVENSWOOD,2722204,1 WALL ST,,RAVENSWOOD,WV,26164-1714,United States,(304)273-5062,38.9502,-81.7616,Monday:9AM-4PM; Tuesday:9AM-4PM; Wednesday:9AM-4PM; Thursday:9AM-4PM; Friday:9AM-5PM; Saturday: CLOSED; Sunday: CLOSED; ,,0
VIENNA,2722207,500 13TH AVE,,VIENNA,WV,26105-2126,United States,(304)295-5400,39.3032,-81.549,Monday:9AM-4PM; Tuesday:9AM-4PM; Wednesday:9AM-4PM; Thursday:9AM-4PM; Friday:9AM-5PM; Saturday: CLOSED; Sunday: CLOSED; ,,0
RIPLEY,2722205,98 ACADEMY DR,,RIPLEY,WV,25271-1100,United States,(304)372-8431,38.822,-81.7229,Monday:9AM-4PM; Tuesday:9AM-4PM; Wednesday:9AM-4PM; Thursday:9AM-4PM; Friday:9AM-5PM; Saturday: CLOSED; Sunday: CLOSED; ,,0
GILBERT,2722116,US ROUTE 52 MAIN ST,,GILBERT,WV,25621-0367,United States,(304)664-3295,37.612,-81.874,Monday:9AM-3PM; Tuesday:9AM-3PM; Wednesday:9AM-3PM; Thursday:9AM-3PM; Friday:9AM-5PM; Saturday: CLOSED; Sunday: CLOSED; ,,0
COLLEYVILLE,8710202,1201 CHURCH ST,,COLLEYVILLE,TX,76034-5848,United States,(817)849-1882,32.8887,-97.1501,Monday:9AM-5PM; Tuesday:9AM-5PM; Wednesday:9AM-5PM; Thursday:9AM-5PM; Friday:9AM-6PM; Saturday: CLOSED; Sunday: CLOSED; ,,0
GRAPEVINE,8710211,2450 HALL JOHNSON RD,,GRAPEVINE,TX,76051-7116,United States,(817)601-9440,32.8939,-97.105,Monday:9AM-5PM; Tuesday:9AM-5PM; Wednesday:9AM-5PM; Thursday:9AM-5PM; Friday:9AM-6PM; Saturday: CLOSED; Sunday: CLOSED; ,,0
NORTH RICHLAND,8711006,8501 WEST AIRPORT FWY STE 100,,NORTH RICHLAND HILLS,TX,76180-7257,United States,(817)918-3261,32.8342,-97.202,Monday:9AM-5PM; Tuesday:9AM-5PM; Wednesday:9AM-5PM; Thursday:9AM-5PM; Friday:9AM-6PM; Saturday:9AM-1PM; Sunday: CLOSED; ,,0
MEADOWBROOK,8621115,4705 MEADOW BROOK RD,,BIRMINGHAM,AL,35242-2981,United States,(205)445-2295,33.4174,-86.6864,Monday:9AM-5PM; Tuesday:9AM-5PM; Wednesday:9AM-5PM; Thursday:9AM-5PM; Friday:9AM-6PM; Saturday: CLOSED; Sunday: CLOSED; ,,0
MOODY,8621120,2821 MOODY PKWY,,MOODY,AL,35004-3102,United States,(205)640-5138,33.5903,-86.4975,Monday:9AM-5PM; Tuesday:9AM-5PM; Wednesday:9AM-5PM; Thursday:9AM-5PM; Friday:9AM-5PM; Saturday: CLOSED; Sunday: CLOSED; ,,0
PELL CITY,8621316,2203 1ST AVE N,,PELL CITY,AL,35125-1781,United States,(205)338-2286,33.5882,-86.2827,Monday:9AM-4PM; Tuesday:9AM-4PM; Wednesday:9AM-4PM; Thursday:9AM-4PM; Friday:9AM-5PM; Saturday: CLOSED; Sunday: CLOSED; ,,0
GATLIN,8530215,1720 SW GATLIN BLVD,,PORT SAINT LUCIE,FL,34953-2777,United States,(772)204-7280,27.2641,-80.4006,Monday:9AM-5PM; Tuesday:9AM-5PM; Wednesday:9AM-5PM; Thursday:9AM-5PM; Friday:9AM-6PM; Saturday: CLOSED; Sunday: CLOSED; ,,0
ST. LUCIE WEST,8530212,1352 SW SAINT LUCIE WEST BLVD,,PORT SAINT LUCIE,FL,34986-2109,United States,(772)807-4940,27.3159,-80.3887,Monday:9AM-5PM; Tuesday:9AM-5PM; Wednesday:9AM-5PM; Thursday:9AM-5PM; Friday:9AM-6PM; Saturday:9AM-12PM; Sunday: CLOSED; ,,0
PALM CITY,8530218,2921 SW HIGH MEADOWS AVE,,PALM CITY,FL,34990-2646,United States,(772)221-4702,27.1694,-80.2935,Monday:9AM-5PM; Tuesday:9AM-5PM; Wednesday:9AM-5PM; Thursday:9AM-5PM; Friday:9AM-6PM; Saturday: CLOSED; Sunday: CLOSED; ,,0
ST. LUCIE EAST,8530214,10585 S US HIGHWAY 1,,PORT SAINT LUCIE,FL,34952-5611,United States,(772)398-8897,27.2714,-80.2893,Monday:9AM-5PM; Tuesday:9AM-5PM; Wednesday:9AM-5PM; Thursday:9AM-5PM; Friday:9AM-6PM; Saturday:9AM-12PM; Sunday: CLOSED; ,,0
FORT PIERCE,8530221,1050 VIRGINIA AVE,,FORT PIERCE,FL,34982-3640,United States,(772)464-5004,27.4254,-80.3339,Monday:9AM-5PM; Tuesday:9AM-5PM; Wednesday:9AM-5PM; Thursday:9AM-5PM; Friday:9AM-6PM; Saturday: CLOSED; Sunday: CLOSED; ,,0
STUART,8530217,1910 SE FEDERAL HWY,,STUART,FL,34994-3916,United States,(772)232-4600,27.1814,-80.2411,Monday:9AM-5PM; Tuesday:9AM-5PM; Wednesday:9AM-5PM; Thursday:9AM-5PM; Friday:9AM-6PM; Saturday: CLOSED; Sunday: CLOSED; ,,0
COLUMBIA,6074703,107 MAIN ST,,COLUMBIA,NC,27925,United States,(252)796-1890,35.9173,-76.2541,Mon: 09:00-01:00 02:30-05:00; Tue: 09:00-01:00 02:30-05:00; Wed: 09:00-01:00 02:30-05:00; Thu: 09:00-01:00 02:30-05:00; Fri: 09:00-01:00 02:30-06:00; Saturday: CLOSED; Sunday: CLOSED; ,,0
INDUSTRIAL BOUL,2790104,600 W INDUSTRIAL BLVD,,CUMBERLAND,MD,21502-4202,United States,(301)777-0961,39.6315,-78.7567,Monday:9AM-5PM; Tuesday:9AM-5PM; Wednesday:9AM-5PM; Thursday:9AM-5PM; Friday:9AM-5PM; Saturday:9AM-12PM; Sunday: CLOSED; ,,0
JENSEN BEACH,8530216,1170 NE JENSEN BEACH BLVD,,JENSEN BEACH,FL,34957-4708,United States,(772)334-4500,27.2445,-80.2367,Monday:9AM-5PM; Tuesday:9AM-5PM; Wednesday:9AM-5PM; Thursday:9AM-5PM; Friday:9AM-6PM; Saturday: CLOSED; Sunday: CLOSED; ,,0
PORT SALERNO,8530219,5545 SE FEDERAL HWY,,STUART,FL,34997-8563,United States,(772)283-8000,27.1401,-80.2103,Monday:9AM-5PM; Tuesday:9AM-5PM; Wednesday:9AM-5PM; Thursday:9AM-5PM; Friday:9AM-6PM; Saturday:9AM-12PM; Sunday: CLOSED; ,,0
CAROLINA COLOUR,6078104,501 W THURMAN RD,,NEW BERN,NC,28562-7021,United States,(252)633-4045,35.0367,-77.0073,Monday:9AM-5PM; Tuesday:9AM-5PM; Wednesday:9AM-5PM; Thursday:9AM-5PM; Friday:9AM-6PM; Saturday: CLOSED; Sunday: CLOSED; ,,0
CUMBERLAND MOTOR BANK,2790101,19 S GEORGE ST,,CUMBERLAND,MD,21502-3049,United States,(301)724-1430,39.6511,-78.7593,Mon: NO DRIVE UP; Tue: NO DRIVE UP; Wed: NO DRIVE UP; Thu: NO DRIVE UP; Fri: NO DRIVE UP; Sat: NO DRIVE UP; Sun: NO DRIVE UP; ,,0
CUMBERLAND MAIN,2790101,71 BALTIMORE ST,,CUMBERLAND,MD,21502-3020,United States,(301)777-4600,39.6514,-78.7617,Monday:9AM-5PM; Tuesday:9AM-5PM; Wednesday:9AM-5PM; Thursday:9AM-5PM; Friday:9AM-5PM; Saturday: CLOSED; Sunday: CLOSED; ,,0
LYCOMING,2820401,1901 LYCOMING CREEK RD,,WILLIAMSPORT,PA,17701-1204,United States,(570)323-9463,41.2545,-77.0439,Monday:9AM-4:30PM; Tuesday:9AM-4:30PM; Wednesday:9AM-4:30PM; Thursday:9AM-5PM; Friday:9AM-6PM; Saturday:9AM-12PM; Sunday: CLOSED; ,,0
CENTER CITY WIL,2820402,204 HEPBURN ST,,WILLIAMSPORT,PA,17701-6515,United States,(570)326-2431,41.2368,-77.0062,Monday:8:30AM-4:30PM; Tuesday:8:30AM-4:30PM; Wednesday:8:30AM-4:30PM; Thursday:8:30AM-5PM; Friday:8:30AM-6PM; Saturday:8:30AM-12PM; Sunday: CLOSED; ,,0
HOBE SOUND,8530220,11400 SE FEDERAL HWY,,HOBE SOUND,FL,33455-5209,United States,(772)546-2700,27.0647,-80.1397,Monday:9AM-5PM; Tuesday:9AM-5PM; Wednesday:9AM-5PM; Thursday:9AM-5PM; Friday:9AM-6PM; Saturday: CLOSED; Sunday: CLOSED; ,,0
IBIS,8540429,10100 NORTHLAKE BLVD,,WEST PALM BEACH,FL,33412-1100,United States,(561)622-0856,26.8111,-80.1979,Monday:9AM-5PM; Tuesday:9AM-5PM; Wednesday:9AM-5PM; Thursday:9AM-5PM; Friday:9AM-6PM; Saturday: CLOSED; Sunday: CLOSED; ,,0
LA VALE,2790102,963 NATIONAL HWY,,LAVALE,MD,21502-7373,United States,(301)729-1934,39.6444,-78.8223,Monday:9AM-5PM; Tuesday:9AM-5PM; Wednesday:9AM-5PM; Thursday:9AM-5PM; Friday:9AM-6PM; Saturday:9AM-12PM; Sunday: CLOSED; ,,0
LOYAL PLAZA,2820403,1949 E 3RD ST,,WILLIAMSPORT,PA,17701-3901,United States,(570)323-9619,41.2487,-76.9623,Monday:9AM-4:30PM; Tuesday:9AM-4:30PM; Wednesday:9AM-4:30PM; Thursday:9AM-5PM; Friday:9AM-6PM; Saturday:9AM-12PM; Sunday: CLOSED; ,,0
MAPLEWOOD,8540434,1570 W INDIANTOWN RD,,JUPITER,FL,33458-3980,United States,(561)744-1445,26.9337,-80.1229,Monday:9AM-5PM; Tuesday:9AM-5PM; Wednesday:9AM-5PM; Thursday:9AM-5PM; Friday:9AM-6PM; Saturday: CLOSED; Sunday: CLOSED; ,,0
TONEY PENNA,8540433,520 TONEY PENNA DR,,JUPITER,FL,33458-5773,United States,(561)744-1980,26.9268,-80.1025,Monday:9AM-5PM; Tuesday:9AM-5PM; Wednesday:9AM-5PM; Thursday:9AM-5PM; Friday:9AM-6PM; Saturday: CLOSED; Sunday: CLOSED; ,,0
MONTOURSVILLE,2820404,950 BROAD ST,,MONTOURSVILLE,PA,17754-2408,United States,(570)368-2207,41.2472,-76.9113,Monday:9AM-3PM; Tuesday:9AM-3PM; Wednesday:9AM-3PM; Thursday:9AM-4PM; Friday:9AM-6PM; Saturday:9AM-12PM; Sunday: CLOSED; ,,0
COOL SPRINGS,2741104,1175 MERIDIAN BLVD STE 114,,FRANKLIN,TN,37067-6349,United States,(615)771-4809,35.9499,-86.8079,Monday:8:30AM-4PM; Tuesday:8:30AM-4PM; Wednesday:8:30AM-4PM; Thursday:8:30AM-4PM; Friday:8:30AM-6PM; Saturday: CLOSED; Sunday: CLOSED; ,,0
GREEN HILLS,2741103,2207 CRESTMOOR RD STE 100,,NASHVILLE,TN,37215-2037,United States,(615)460-7739,36.1094,-86.8137,Monday:8:30AM-4PM; Tuesday:8:30AM-4PM; Wednesday:8:30AM-4PM; Thursday:8:30AM-4PM; Friday:8:30AM-6PM; Saturday: CLOSED; Sunday: CLOSED; ,,0
TERRAZZO,2741102,700 12TH AVE S UNIT 102,,NASHVILLE,TN,37203-3423,United States,(615)873-2095,36.1505,-86.7838,Monday:8:30AM-4PM; Tuesday:8:30AM-4PM; Wednesday:8:30AM-4PM; Thursday:8:30AM-4PM; Friday:8:30AM-6PM; Saturday: CLOSED; Sunday: CLOSED; ,,0
WALNUT BOTTOM R,2800229,1196 WALNUT BOTTOM RD,,CARLISLE,PA,17015-9160,United States,(717)249-8281,40.1791,-77.2196,Monday:9AM-5PM; Tuesday:9AM-5PM; Wednesday:9AM-5PM; Thursday:9AM-5PM; Friday:9AM-6PM; Saturday:9AM-12PM; Sunday: CLOSED; ,,0
CARLISLE,2800231,330 YORK RD,,CARLISLE,PA,17013-3180,United States,(717)218-6635,40.1913,-77.1597,Monday:9AM-5PM; Tuesday:9AM-5PM; Wednesday:9AM-5PM; Thursday:9AM-5PM; Friday:9AM-6PM; Saturday: CLOSED; Sunday: CLOSED; ,,0
DILLSBURG,2800203,830 N US ROUTE 15 STE A,,DILLSBURG,PA,17019-1617,United States,(717)728-2660,40.1288,-77.0198,Monday:9AM-6PM; Tuesday:9AM-6PM; Wednesday:9AM-6PM; Thursday:9AM-6PM; Friday:9AM-6PM; Saturday:8AM-1PM; Sunday: CLOSED; ,,0
GETTYSBURG,2800221,29 N WASHINGTON ST,,GETTYSBURG,PA,17325-1128,United States,(717)334-6238,39.8312,-77.2333,Monday:9AM-5PM; Tuesday:9AM-5PM; Wednesday:9AM-5PM; Thursday:9AM-5PM; Friday:9AM-6PM; Saturday: CLOSED; Sunday: CLOSED; ,,0
EAST BERLIN,2800219,100 E KING ST,,EAST BERLIN,PA,17316-9513,United States,(717)259-9510,39.9379,-76.9781,Monday:9AM-5PM; Tuesday:9AM-5PM; Wednesday:9AM-5PM; Thursday:9AM-5PM; Friday:9AM-6PM; Saturday:9AM-12PM; Sunday: CLOSED; ,,0
CEREDO,2722502,106 C ST,,CEREDO,WV,25507-1228,United States,(304)453-6151,38.3974,-82.5638,Monday:9AM-4PM; Tuesday:9AM-4PM; Wednesday:9AM-4PM; Thursday:9AM-5PM; Friday:9AM-4PM; Saturday: CLOSED; Sunday: CLOSED; ,,0
FAIRFIELD,2722503,1425 HAL GREER BLVD,,HUNTINGTON,WV,25701-4113,United States,(304)528-2200,38.408,-82.4283,Monday:9AM-4PM; Tuesday:9AM-4PM; Wednesday:9AM-4PM; Thursday:9AM-4PM; Friday:9AM-4PM; Saturday: CLOSED; Sunday: CLOSED; ,,0
NEW OXFORD,2800220,5625 YORK RD,,NEW OXFORD,PA,17350-9553,United States,(717)624-0455,39.8662,-77.0442,Monday:9AM-5PM; Tuesday:9AM-5PM; Wednesday:9AM-5PM; Thursday:9AM-5PM; Friday:9AM-6PM; Saturday:9AM-12PM; Sunday: CLOSED; ,,0
PEA RIDGE/BARBV,2722504,5638 US ROUTE 60,,HUNTINGTON,WV,25705-2141,United States,(304)736-2526,38.4108,-82.3231,Monday:9AM-4PM; Tuesday:9AM-4PM; Wednesday:9AM-4PM; Thursday:9AM-5PM; Friday:9AM-4PM; Saturday: CLOSED; Sunday: CLOSED; ,,0
HURRICANE,2722509,101 HURRICANE CREEK RD,,HURRICANE,WV,25526-1406,United States,(304)562-3396,38.4357,-82.0153,Monday:9AM-4PM; Tuesday:9AM-4PM; Wednesday:9AM-4PM; Thursday:9AM-4PM; Friday:9AM-4PM; Saturday: CLOSED; Sunday: CLOSED; ,,0
NORTH HANOVER,2800206,1191 EICHELBERGER ST,,HANOVER,PA,17331-1365,United States,(717)633-6555,39.8239,-76.9928,Monday:9AM-5PM; Tuesday:9AM-5PM; Wednesday:9AM-5PM; Thursday:9AM-5PM; Friday:9AM-6PM; Saturday: CLOSED; Sunday: CLOSED; ,,0
TEAYS VALLEY,2722508,352 STATE ROUTE 34,,HURRICANE,WV,25526-7033,United States,(304)757-7234,38.4518,-81.9384,Monday:9AM-4PM; Tuesday:9AM-4PM; Wednesday:9AM-4PM; Thursday:9AM-6PM; Friday:9AM-4PM; Saturday: CLOSED; Sunday: CLOSED; ,,0
SE MILITARY,8721112,1313 SE MILITARY DR,,SAN ANTONIO,TX,78214-2800,United States,(210)762-3260,29.3546,-98.4769,Monday:9AM-5PM; Tuesday:9AM-5PM; Wednesday:9AM-5PM; Thursday:9AM-5PM; Friday:9AM-5PM; Saturday:9AM-12PM; Sunday: CLOSED; ,,0
EISENHOWER DRIV,2800213,402 EISENHOWER DR,,HANOVER,PA,17331-5221,United States,(717)630-4889,39.8256,-76.9803,Monday:9AM-5PM; Tuesday:9AM-5PM; Wednesday:9AM-5PM; Thursday:9AM-5PM; Friday:9AM-6PM; Saturday:9AM-1PM; Sunday: CLOSED; ,,0
LAS PALMAS,8721108,803 CASTROVILLE RD,,SAN ANTONIO,TX,78237-3153,United States,(210)762-3240,29.4177,-98.5535,Monday:9AM-5PM; Tuesday:9AM-5PM; Wednesday:9AM-5PM; Thursday:9AM-5PM; Friday:9AM-5:30PM; Saturday:9AM-12PM; Sunday: CLOSED; ,,0
ALAMO CENTER,8721102,106 S SAINT MARYS ST STE 100,,SAN ANTONIO,TX,78205-3601,United States,(210)248-1598,29.4244,-98.4913,Monday:9AM-5PM; Tuesday:9AM-5PM; Wednesday:9AM-5PM; Thursday:9AM-5PM; Friday:9AM-5PM; Saturday: CLOSED; Sunday: CLOSED; ,,0
ALAMO HEIGHTS,8721106,5400 BROADWAY ST,,SAN ANTONIO,TX,78209-5716,United States,(210)762-3220,29.477,-98.4624,Monday:9AM-5PM; Tuesday:9AM-5PM; Wednesday:9AM-5PM; Thursday:9AM-5PM; Friday:9AM-5PM; Saturday:9AM-12PM; Sunday: CLOSED; ,,0
MEDICAL CENTER,8721104,5360 FREDERICKSBURG RD,,SAN ANTONIO,TX,78229-3578,United States,(210)306-2364,29.5052,-98.5617,Monday:9AM-5PM; Tuesday:9AM-5PM; Wednesday:9AM-5PM; Thursday:9AM-5PM; Friday:9AM-5PM; Saturday: CLOSED; Sunday: CLOSED; ,,0
BLANCO & 410,8721107,1000 NW LOOP 410,,SAN ANTONIO,TX,78213-2220,United States,(210)762-3120,29.5197,-98.5073,Monday:9AM-5PM; Tuesday:9AM-5PM; Wednesday:9AM-5PM; Thursday:9AM-5PM; Friday:9AM-5:30PM; Saturday:9AM-12PM; Sunday: CLOSED; ,,0
INTERNATIONAL C,8721101,100 NE LOOP 410 STE 165,,SAN ANTONIO,TX,78216-4701,United States,(210)247-2968,29.5198,-98.4826,Monday:8:30AM-5PM; Tuesday:8:30AM-5PM; Wednesday:8:30AM-5PM; Thursday:8:30AM-5PM; Friday:8:30AM-5PM; Saturday: CLOSED; Sunday: CLOSED; ,,0
COLONNADE,8721103,9901 IH 10 W STE 165,,SAN ANTONIO,TX,78230-2252,United States,(210)253-6397,29.5338,-98.5619,Monday:9AM-5PM; Tuesday:9AM-5PM; Wednesday:9AM-5PM; Thursday:9AM-5PM; Friday:9AM-5PM; Saturday: CLOSED; Sunday: CLOSED; ,,0
HERITAGE,8721109,2338 N LOOP 1604 W,,SAN ANTONIO,TX,78248-4521,United States,(210)762-3160,29.6037,-98.5298,Monday:9AM-5PM; Tuesday:9AM-5PM; Wednesday:9AM-5PM; Thursday:9AM-5PM; Friday:9AM-5PM; Saturday: CLOSED; Sunday: CLOSED; ,,0
FORUM PARKWAY,8721111,14775 I-35 N,,SELMA,TX,78154,United States,(210)762-3140,29.573,-98.3288,Monday:9AM-5PM; Tuesday:9AM-5PM; Wednesday:9AM-5PM; Thursday:9AM-5PM; Friday:9AM-5:30PM; Saturday:9AM-12PM; Sunday: CLOSED; ,,0
LEGACY,8721110,2103 N LOOP 1604 E,,SAN ANTONIO,TX,78232-5651,United States,(210)762-3200,29.6077,-98.4597,Monday:9AM-5PM; Tuesday:9AM-5PM; Wednesday:9AM-5PM; Thursday:9AM-5PM; Friday:9AM-5PM; Saturday: CLOSED; Sunday: CLOSED; ,,0
STONE OAK NORTH,8721113,19141 STONE OAK PKWY,,SAN ANTONIO,TX,78258-3366,United States,(210)762-3180,29.6257,-98.4958,Monday:9AM-5PM; Tuesday:9AM-5PM; Wednesday:9AM-5PM; Thursday:9AM-5PM; Friday:9AM-5:30PM; Saturday:9AM-12PM; Sunday: CLOSED; ,,0
FRANKLIN,2022229,201 N COLLEGE DR,,FRANKLIN,VA,23851-2449,United States,(757)562-5185,36.674,-76.9404,Monday:9AM-5PM; Tuesday:9AM-5PM; Wednesday:9AM-5PM; Thursday:9AM-5PM; Friday:9AM-6PM; Saturday:9AM-12PM; Sunday: CLOSED; ,,0
EMPORIA,2027704,301 W ATLANTIC ST,,EMPORIA,VA,23847-1205,United States,(434)634-9431,36.6972,-77.5424,Monday:9AM-5PM; Tuesday:9AM-5PM; Wednesday:9AM-5PM; Thursday:9AM-5PM; Friday:9AM-6PM; Saturday: CLOSED; Sunday: CLOSED; ,,0
TALLASSEE,8620407,1415 GILMER AVE,,TALLASSEE,AL,36078-2321,United States,(334)283-4930,32.5522,-85.9218,Monday:9AM-5PM; Tuesday:9AM-5PM; Wednesday:9AM-5PM; Thursday:9AM-5PM; Friday:9AM-5PM; Saturday: CLOSED; Sunday: CLOSED; ,,0
CHANTILLY CORNE,8620114,9120 EASTCHASE PKWY,,MONTGOMERY,AL,36117-6878,United States,(334)676-5515,32.3618,-86.1379,Monday:9AM-5PM; Tuesday:9AM-5PM; Wednesday:9AM-5PM; Thursday:9AM-5PM; Friday:9AM-5PM; Saturday: CLOSED; Sunday: CLOSED; ,,0
SHAMOKIN EAST,2820427,300 E INDEPENDENCE ST,,SHAMOKIN,PA,17872-6710,United States,(570)648-4696,40.7916,-76.5526,Monday:9AM-3PM; Tuesday:9AM-3PM; Wednesday:9AM-3PM; Thursday:9AM-4PM; Friday:9AM-6PM; Saturday:9AM-12PM; Sunday: CLOSED; ,,0
SHAMOKIN WEST,2820426,521 N 2ND ST,,SHAMOKIN,PA,17872-5139,United States,(570)648-4681,40.7895,-76.5641,Monday:9AM-3PM; Tuesday:9AM-3PM; Wednesday:9AM-3PM; Thursday:9AM-4PM; Friday:9AM-6PM; Saturday:9AM-12PM; Sunday: CLOSED; ,,0
KULPMONT,2820425,801 CHESTNUT ST,,KULPMONT,PA,17834-1313,United States,(570)373-1558,40.7938,-76.4706,Monday:9AM-3PM; Tuesday:9AM-3PM; Wednesday:9AM-3PM; Thursday:9AM-4PM; Friday:9AM-6PM; Saturday:9AM-12PM; Sunday: CLOSED; ,,0
MOUNT CARMEL,2820424,109 N OAK ST,,MOUNT CARMEL,PA,17851-1423,United States,(570)339-1370,40.7983,-76.4132,Monday:9AM-3PM; Tuesday:9AM-3PM; Wednesday:9AM-3PM; Thursday:9AM-4PM; Friday:9AM-6PM; Saturday:9AM-12PM; Sunday: CLOSED; ,,0
TRI VALLEY,2820135,702 W MAIN ST,,VALLEY VIEW,PA,17983-9474,United States,(570)682-8360,40.6473,-76.5308,Monday:9AM-3PM; Tuesday:9AM-3PM; Wednesday:9AM-3PM; Thursday:9AM-4PM; Friday:9AM-5PM; Saturday: CLOSED; Sunday: CLOSED; ,,0
CLINTON,2063726,9110 PISCATAWAY RD,,CLINTON,MD,20735-2530,United States,(301)877-2399,38.7649,-76.8994,Monday:9AM-5PM; Tuesday:9AM-5PM; Wednesday:9AM-5PM; Thursday:9AM-5PM; Friday:9AM-6PM; Saturday: CLOSED; Sunday: CLOSED; ,,0
UPPER MARLBORO,2063723,9420 MARLBORO PIKE,,UPPER MARLBORO,MD,20772-3617,United States,(301)778-1357,38.8173,-76.8426,Monday:9AM-5PM; Tuesday:9AM-5PM; Wednesday:9AM-5PM; Thursday:9AM-5PM; Friday:9AM-6PM; Saturday: CLOSED; Sunday: CLOSED; ,,0
CAMP SPRINGS,2063702,6410 ALLENTOWN RD,,CAMP SPRINGS,MD,20748,United States,(301)449-3838,38.8015,-76.9088,Monday:9AM-5PM; Tuesday:9AM-5PM; Wednesday:9AM-5PM; Thursday:9AM-5PM; Friday:9AM-6PM; Saturday:9AM-12PM; Sunday: CLOSED; ,,0
WALDORF - NORTH,2540309,2140 OLD WASHINGTON RD,,WALDORF,MD,20601-3179,United States,(301)645-4400,38.6523,-76.8801,Monday:9AM-4PM; Tuesday:9AM-4PM; Wednesday:9AM-4PM; Thursday:9AM-4PM; Friday:9AM-6PM; Saturday:9AM-12PM; Sunday: CLOSED; ,,0
LEE DAVIS,2020405,7016 MECHANICSVILLE TPKE,,MECHANICSVILLE,VA,23111-7101,United States,(804)730-3181,37.6124,-77.3372,Monday:9AM-5PM; Tuesday:9AM-5PM; Wednesday:9AM-5PM; Thursday:9AM-5PM; Friday:9AM-6PM; Saturday:9AM-12PM; Sunday: CLOSED; ,,0
GREENEVILLE,2741305,1604 E ANDREW JOHNSON HWY,,GREENEVILLE,TN,37745-4292,United States,(423)639-2273,36.1768,-82.795,Monday:9AM-4PM; Tuesday:9AM-4PM; Wednesday:9AM-4PM; Thursday:9AM-4PM; Friday:9AM-6PM; Saturday: CLOSED; Sunday: CLOSED; ,,0
FORESTVILLE,2063720,3448 DONNELL DR,,FORESTVILLE,MD,20747-3209,United States,(301)817-3740,38.8446,-76.8842,Monday:9AM-5PM; Tuesday:9AM-5PM; Wednesday:9AM-5PM; Thursday:9AM-5PM; Friday:9AM-6PM; Saturday:9AM-12PM; Sunday: CLOSED; ,,0
ATLEE STATION,2020426,9186 CHAMBERLAYNE RD,,MECHANICSVILLE,VA,23116-2509,United States,(804)746-4978,37.6488,-77.4035,Monday:9AM-5PM; Tuesday:9AM-5PM; Wednesday:9AM-5PM; Thursday:9AM-5PM; Friday:9AM-6PM; Saturday: CLOSED; Sunday: CLOSED; ,,0
DUFFIELD,2090165,466 DUFF PATT HWY,,DUFFIELD,VA,24244-5000,United States,(276)431-2851,36.7113,-82.7993,Monday:9AM-4PM; Tuesday:9AM-4PM; Wednesday:9AM-4PM; Thursday:9AM-4PM; Friday:9AM-6PM; Saturday: CLOSED; Sunday: CLOSED; ,,0
WAYSON'S CORNER,2540116,5401 SOUTHERN MARYLAND BLVD,,LOTHIAN,MD,20711-9726,United States,(410)741-1966,38.8114,-76.7009,Monday:9AM-4PM; Tuesday:9AM-4PM; Wednesday:9AM-4PM; Thursday:9AM-4PM; Friday:9AM-6PM; Saturday: CLOSED; Sunday: CLOSED; ,,0
KINGS CHARTER,2020424,9707 SLIDING HILL RD,,ASHLAND,VA,23005-7962,United States,(804)550-2665,37.6931,-77.4382,Monday:9AM-5PM; Tuesday:9AM-5PM; Wednesday:9AM-5PM; Thursday:9AM-5PM; Friday:9AM-6PM; Saturday:9AM-12PM; Sunday: CLOSED; ,,0
CUMBERLAND,2775905,1202 E MAIN ST,,CUMBERLAND,KY,40823-1720,United States,(606)589-2186,36.9767,-82.9858,Monday:9AM-4PM; Tuesday:9AM-4PM; Wednesday:9AM-4PM; Thursday:9AM-4PM; Friday:9AM-5PM; Saturday: CLOSED; Sunday: CLOSED; ,,0
FORT WASHINGTON,2063724,9412 LIVINGSTON RD,,FORT WASHINGTON,MD,20744-4916,United States,(301)248-3500,38.7595,-76.9943,Monday:9AM-5PM; Tuesday:9AM-5PM; Wednesday:9AM-5PM; Thursday:9AM-5PM; Friday:9AM-6PM; Saturday:9AM-12PM; Sunday: CLOSED; ,,0
ASHLAND,2020407,700 ENGLAND ST,,ASHLAND,VA,23005-2217,United States,(804)798-9171,37.7587,-77.4712,Monday:9AM-5PM; Tuesday:9AM-5PM; Wednesday:9AM-5PM; Thursday:9AM-5PM; Friday:9AM-6PM; Saturday:9AM-12PM; Sunday: CLOSED; ,,0
BIG STONE GAP,2090159,621 WOOD AVE E,,BIG STONE GAP,VA,24219-3021,United States,(276)523-2311,36.869,-82.7722,Monday:9AM-5PM; Tuesday:9AM-5PM; Wednesday:9AM-5PM; Thursday:9AM-5PM; Friday:9AM-6PM; Saturday: CLOSED; Sunday: CLOSED; ,,0
KINGSPORT,2741405,1776 FORT HENRY DR,,KINGSPORT,TN,37664-3227,United States,(423)245-5509,36.531,-82.5261,Monday:9AM-4PM; Tuesday:9AM-4PM; Wednesday:9AM-4PM; Thursday:9AM-4PM; Friday:9AM-6PM; Saturday:9AM-12PM; Sunday: CLOSED; ,,0
OXON HILL,2063725,6168 OXON HILL RD,,OXON HILL,MD,20745-3107,United States,(301)749-1539,38.804,-76.9799,Monday:9AM-5PM; Tuesday:9AM-5PM; Wednesday:9AM-5PM; Thursday:9AM-5PM; Friday:9AM-6PM; Saturday: CLOSED; Sunday: CLOSED; ,,0
EAST PARHAM,2020409,1300 E PARHAM RD,,RICHMOND,VA,23228-2363,United States,(804)264-2824,37.6356,-77.4625,Monday:9AM-5PM; Tuesday:9AM-5PM; Wednesday:9AM-5PM; Thursday:9AM-5PM; Friday:9AM-6PM; Saturday:9AM-12PM; Sun: NO DRIVE UP; ,,0
LABURNUM,2020403,4799 S LABURNUM AVE,,RICHMOND,VA,23231-2711,United States,(804)226-9333,37.522,-77.3512,Monday:9AM-5PM; Tuesday:9AM-5PM; Wednesday:9AM-5PM; Thursday:9AM-5PM; Friday:9AM-6PM; Saturday:9AM-12PM; Sunday: CLOSED; ,,0
LEONARDTOWN RD,2540310,3425 LEONARDTOWN RD,,WALDORF,MD,20601-3644,United States,(301)843-3312,38.6196,-76.8989,Monday:9AM-4PM; Tuesday:9AM-4PM; Wednesday:9AM-4PM; Thursday:9AM-4PM; Friday:9AM-6PM; Saturday:9AM-12PM; Sunday: CLOSED; ,,0
DUNKIRK,2540313,10264 SOUTHERN MARYLAND BLVD,,DUNKIRK,MD,20754-3028,United States,(410)257-7396,38.7196,-76.6614,Monday:9AM-4PM; Tuesday:9AM-4PM; Wednesday:9AM-4PM; Thursday:9AM-4PM; Friday:9AM-6PM; Saturday:9AM-12PM; Sunday: CLOSED; ,,0
AIRPORT,2020429,1 RICHARD E BYRD TERMINAL DR,,RICHMOND,VA,23250-2450,United States,(804)226-3640,37.5081,-77.3329,Monday:10AM-2PM; Tuesday:10AM-2PM; Wednesday:10AM-2PM; Thursday:10AM-2PM; Friday:10AM-2PM; Saturday: CLOSED; Sunday: CLOSED; ,,0
LAKESIDE,2020410,5001 LAKESIDE AVE,,RICHMOND,VA,23228-6001,United States,(804)264-2783,37.5994,-77.4667,Monday:9AM-5PM; Tuesday:9AM-5PM; Wednesday:9AM-5PM; Thursday:9AM-5PM; Friday:9AM-6PM; Saturday: CLOSED; Sunday: CLOSED; ,,0
STAPLES MILL,2020451,8727 STAPLES MILL RD,,RICHMOND,VA,23228-2730,United States,(804)261-3250,37.6323,-77.5075,Monday:9AM-5PM; Tuesday:9AM-5PM; Wednesday:9AM-5PM; Thursday:9AM-5PM; Friday:9AM-6PM; Saturday: CLOSED; Sunday: CLOSED; ,,0
RIVERFRONT,2020401,901 E BYRD ST STE 170,,RICHMOND,VA,23219-4052,United States,(804)205-9090,37.5352,-77.4383,Monday: 09:00 05:00; Tuesday:9AM-5PM; Wednesday:9AM-5PM; Thursday:9AM-5PM; Friday:9AM-5PM; Saturday: CLOSED; Sunday: CLOSED; ,,0
SKIPWITH,2020402,3214 SKIPWITH RD,,RICHMOND,VA,23294-4441,United States,(804)418-8800,37.6311,-77.5402,Monday:9AM-5PM; Tuesday:9AM-5PM; Wednesday:9AM-5PM; Thursday:9AM-5PM; Friday:9AM-6PM; Saturday:9AM-12PM; Sunday: CLOSED; ,,0
WESTHAMPTON,2020420,5707 PATTERSON AVE,,RICHMOND,VA,23226-2009,United States,(804)288-4311,37.5787,-77.514,Monday:9AM-5PM; Tuesday:9AM-5PM; Wednesday:9AM-5PM; Thursday:9AM-5PM; Friday:9AM-6PM; Saturday: CLOSED; Sunday: CLOSED; ,,0
BLUE RIDGE,2741210,3831 APPALACHIAN HWY,,BLUE RIDGE,GA,30513-4420,United States,(706)632-6554,34.8714,-84.3288,Monday:9AM-5PM; Tuesday:9AM-5PM; Wednesday:9AM-5PM; Thursday:9AM-5PM; Friday:9AM-6PM; Saturday: CLOSED; Sunday: CLOSED; ,,0
HAZLETON,2820208,12 E BROAD ST,,HAZLETON,PA,18201-6521,United States,(570)459-3713,40.9533,-75.9741,Monday:9AM-5PM; Tuesday:9AM-5PM; Wednesday:9AM-5PM; Thursday:9AM-5PM; Friday:9AM-6PM; Saturday:9AM-12PM; Sunday: CLOSED; ,,0
HAZLETON DRIVE-THRU,2820208,12 EAST MINE ST,,HAZLETON,PA,18201,United States,,40.9533,-75.9741,Mon: NO DRIVE UP; Tue: NO DRIVE UP; Wed: NO DRIVE UP; Thu: NO DRIVE UP; Fri: NO DRIVE UP; Sat: NO DRIVE UP; Sun: NO DRIVE UP; ,,0
LAUREL MALL,2820209,345 LAUREL MALL STORE E,,HAZLE TOWNSHIP,PA,18202-1205,United States,(570)459-4350,40.9812,-76.0162,Monday:9AM-5PM; Tuesday:9AM-5PM; Wednesday:9AM-5PM; Thursday:9AM-5PM; Friday:9AM-6PM; Saturday:9AM-12PM; Sunday: CLOSED; ,,0
WEATHERLY,2820214,140 CARBON ST,,WEATHERLY,PA,18255-1435,United States,(570)427-8632,40.9397,-75.8281,Monday:9AM-5PM; Tuesday:9AM-5PM; Wednesday:9AM-5PM; Thursday:9AM-5PM; Friday:9AM-6PM; Saturday:9AM-12PM; Sunday: CLOSED; ,,0
ATHENS,2723102,202 STATE STREET,,ATHENS,WV,24712-0745,United States,(304)384-9697,37.4233,-81.0162,Monday:9AM-4PM; Tuesday:9AM-4PM; Wednesday:9AM-4PM; Thursday:9AM-4PM; Friday:9AM-4PM; Saturday: CLOSED; Sunday: CLOSED; ,,0
LOUDON MAIN,2740515,406 GROVE ST,,LOUDON,TN,37774-1224,United States,(865)458-4666,35.742,-84.337,Monday:9AM-5PM; Tuesday:9AM-5PM; Wednesday:9AM-5PM; Thursday:9AM-5PM; Friday:9AM-6PM; Saturday: CLOSED; Sunday: CLOSED; ,,0
TELLICO VILLAGE,2740516,302 VILLAGE SQUARE DR,,LOUDON,TN,37774-2868,United States,(865)458-7341,35.6943,-84.2599,Monday:9AM-5PM; Tuesday:9AM-5PM; Wednesday:9AM-5PM; Thursday:9AM-5PM; Friday:9AM-6PM; Saturday: CLOSED; Sunday: CLOSED; ,,0
LENOIR CITY,2740517,391 HIGHWAY 321 N,,LENOIR CITY,TN,37771-2060,United States,(865)988-2400,35.8024,-84.2599,Monday:9AM-5PM; Tuesday:9AM-5PM; Wednesday:9AM-5PM; Thursday:9AM-5PM; Friday:9AM-6PM; Saturday: CLOSED; Sunday: CLOSED; ,,0
OZARK,8620707,253 S UNION AVE,,OZARK,AL,36360-1829,United States,(334)774-2646,31.4572,-85.6398,Monday:9AM-5PM; Tuesday:9AM-5PM; Wednesday:9AM-5PM; Thursday:9AM-5PM; Friday:9AM-5PM; Saturday: CLOSED; Sunday: CLOSED; ,,0
WINTER GARDEN V,8530112,3106 DANIELS RD,,WINTER GARDEN,FL,34787-7017,United States,(407)614-6330,28.5245,-81.5862,Monday:9AM-5PM; Tuesday:9AM-5PM; Wednesday:9AM-5PM; Thursday:9AM-5PM; Friday:9AM-6PM; Saturday:9AM-12PM; Sunday: CLOSED; ,,0
OCOEE,8530122,1550 MAGUIRE RD,,OCOEE,FL,34761-2982,United States,(407)877-1175,28.5492,-81.5419,Monday:9AM-5PM; Tuesday:9AM-5PM; Wednesday:9AM-5PM; Thursday:9AM-5PM; Friday:9AM-6PM; Saturday: CLOSED; Sunday: CLOSED; ,,0
CLERMONT,8530127,2665 E HIGHWAY 50,,CLERMONT,FL,34711-6050,United States,(407)877-5301,28.5459,-81.7034,Monday:9AM-5PM; Tuesday:9AM-5PM; Wednesday:9AM-5PM; Thursday:9AM-5PM; Friday:9AM-6PM; Saturday: CLOSED; Sunday: CLOSED; ,,0
LAKE KINGS RIDG,8530129,4299 S HIGHWAY 27,,CLERMONT,FL,34711-5387,United States,(352)241-0394,28.5017,-81.7186,Monday:9AM-5PM; Tuesday:9AM-5PM; Wednesday:9AM-5PM; Thursday:9AM-5PM; Friday:9AM-6PM; Saturday: CLOSED; Sunday: CLOSED; ,,0
DR. PHILLIPS,8530125,7208 W SAND LAKE RD,,ORLANDO,FL,32819-5200,United States,(407)345-4806,28.4494,-81.4787,Monday:9AM-5PM; Tuesday:9AM-5PM; Wednesday:9AM-5PM; Thursday:9AM-5PM; Friday:9AM-6PM; Saturday: CLOSED; Sunday: CLOSED; ,,0
TABOR CITY,6061506,301 HICKMAN RD,,TABOR CITY,NC,28463-2515,United States,(910)653-4044,34.1466,-78.8765,Monday:9AM-5PM; Tuesday:9AM-5PM; Wednesday:9AM-5PM; Thursday:9AM-5PM; Friday:9AM-6PM; Saturday: CLOSED; Sunday: CLOSED; ,,0
ROWLAND,6060508,201 E MAIN ST,,ROWLAND,NC,28383-9400,United States,(910)422-3314,34.5367,-79.2908,Monday:9AM-1PM; Tuesday:9AM-1PM; Wednesday:9AM-1PM; Thursday:9AM-1PM; Friday:9AM-1PM; Saturday: CLOSED; Sunday: CLOSED; ,,0
NORTH CONWAY,8044104,2600 MAIN ST,,CONWAY,SC,29526-3759,United States,(843)488-4648,33.8668,-79.0528,Monday:8:30AM-5PM; Tuesday:8:30AM-5PM; Wednesday:8:30AM-5PM; Thursday:8:30AM-5PM; Friday:8:30AM-6PM; Saturday: CLOSED; Sunday: CLOSED; ,,0
CHADBOURN,6061505,625 N BROWN ST,,CHADBOURN,NC,28431-1305,United States,(910)654-5166,34.3282,-78.8266,Monday:9AM-5PM; Tuesday:9AM-5PM; Wednesday:9AM-5PM; Thursday:9AM-5PM; Friday:9AM-6PM; Saturday: CLOSED; Sunday: CLOSED; ,,0
LAS COLINAS,8710203,6650 N MACARTHUR BLVD,,IRVING,TX,75039-2439,United States,(972)506-9110,32.8994,-96.9585,Monday:9AM-5PM; Tuesday:9AM-5PM; Wednesday:9AM-5PM; Thursday:9AM-5PM; Friday:9AM-6PM; Saturday:9AM-1PM; Sunday: CLOSED; ,,0
HWY 501,8044102,2300 E HIGHWAY 501,,CONWAY,SC,29526-9524,United States,(843)347-5055,33.7904,-78.998,Monday:8:30AM-5PM; Tuesday:8:30AM-5PM; Wednesday:8:30AM-5PM; Thursday:8:30AM-5PM; Friday:8:30AM-6PM; Saturday: CLOSED; Sunday: CLOSED; ,,0
IRVING 183,8710209,2420 N BELT LINE RD STE 150,,IRVING,TX,75062-5294,United States,(469)262-7118,32.8401,-96.9932,Monday:9AM-5PM; Tuesday:9AM-5PM; Wednesday:9AM-5PM; Thursday:9AM-5PM; Friday:9AM-6PM; Saturday:9AM-1PM; Sunday: CLOSED; ,,0
HIGHWAY 544 WES,8044105,1571 HIGHWAY 544,,CONWAY,SC,29526-8450,United States,(843)234-9977,33.7748,-79.0207,Monday:8:30AM-5PM; Tuesday:8:30AM-5PM; Wednesday:8:30AM-5PM; Thursday:8:30AM-5PM; Friday:8:30AM-6PM; Saturday: CLOSED; Sunday: CLOSED; ,,0
CARROLLTON,8710513,2340 E TRINITY MILLS RD STE 112,,CARROLLTON,TX,75006-1900,United States,(972)512-2425,32.9845,-96.8736,Monday:9AM-5PM; Tuesday:9AM-5PM; Wednesday:9AM-5PM; Thursday:9AM-5PM; Friday:9AM-6PM; Saturday: CLOSED; Sunday: CLOSED; ,,0
SOUTH WHITEVILL,6061503,2 S WHITEVILLE VLG,,WHITEVILLE,NC,28472-4916,United States,(910)914-9945,34.3093,-78.7118,Monday:9AM-5PM; Tuesday:9AM-5PM; Wednesday:9AM-5PM; Thursday:9AM-5PM; Friday:9AM-6PM; Saturday: CLOSED; Sunday: CLOSED; ,,0
LUMBERTON MAIN,6060501,500 N PINE ST,,LUMBERTON,NC,28358-5516,United States,(910)272-2131,34.6205,-79.0038,Monday:9AM-5PM; Tuesday:9AM-5PM; Wednesday:9AM-5PM; Thursday:9AM-5PM; Friday:9AM-6PM; Saturday: CLOSED; Sunday: CLOSED; ,,0
WHITEVILLE MAIN,6061501,306 S MADISON ST,,WHITEVILLE,NC,28472-4124,United States,(910)914-9660,34.3271,-78.7031,Monday:9AM-5PM; Tuesday:9AM-5PM; Wednesday:9AM-5PM; Thursday:9AM-5PM; Friday:9AM-6PM; Saturday: CLOSED; Sunday: CLOSED; ,,0
COURTHOUSE,6061502,810 PINCKNEY ST,,WHITEVILLE,NC,28472-3308,United States,(910)914-9900,34.3393,-78.7034,Monday:9AM-5PM; Tuesday:9AM-5PM; Wednesday:9AM-5PM; Thursday:9AM-5PM; Friday:9AM-6PM; Saturday: CLOSED; Sunday: CLOSED; ,,0
LUMBERTON N ELM,6060502,2700 N ELM ST,,LUMBERTON,NC,28358-3012,United States,(910)272-2700,34.6364,-79.008,Monday:9AM-5PM; Tuesday:9AM-5PM; Wednesday:9AM-5PM; Thursday:9AM-5PM; Friday:9AM-6PM; Saturday: CLOSED; Sunday: CLOSED; ,,0
STATESBORO SOUT,8429602,108 SPRINGHILL DR,,STATESBORO,GA,30458-0880,United States,(912)764-0228,32.4065,-81.7631,Monday:9AM-5PM; Tuesday:9AM-5PM; Wednesday:9AM-5PM; Thursday:9AM-5PM; Friday:9AM-6PM; Saturday:9AM-1PM; Sunday: CLOSED; ,,0
CAROLINA FOREST,8044103,3894 RENEE DR,,MYRTLE BEACH,SC,29579-4108,United States,(843)903-5580,33.7604,-78.9611,Monday:8:30AM-5PM; Tuesday:8:30AM-5PM; Wednesday:8:30AM-5PM; Thursday:8:30AM-5PM; Friday:8:30AM-6PM; Saturday:9AM-12PM; Sunday: CLOSED; ,,0
STATESBORO MAIN,8429601,40 N MAIN ST,,STATESBORO,GA,30458-1300,United States,(912)764-6610,32.4503,-81.783,Monday:9AM-5PM; Tuesday:9AM-5PM; Wednesday:9AM-5PM; Thursday:9AM-5PM; Friday:9AM-6PM; Saturday: CLOSED; Sunday: CLOSED; ,,0
LUMBERTON LIBER,6060504,5000 FAYETTEVILLE RD,,LUMBERTON,NC,28358-2108,United States,(910)272-2730,34.6645,-79.0006,Monday:9AM-5PM; Tuesday:9AM-5PM; Wednesday:9AM-5PM; Thursday:9AM-5PM; Friday:9AM-6PM; Saturday: CLOSED; Sunday: CLOSED; ,,0
JESUP,8429403,818 S 1ST ST,,JESUP,GA,31545-0201,United States,(912)427-2265,31.6028,-81.8971,Monday:9AM-4PM; Tuesday:9AM-4PM; Wednesday:9AM-4PM; Thursday:9AM-4PM; Friday:9AM-5PM; Saturday: CLOSED; Sunday: CLOSED; ,,0
SOCASTEE BLVD,8043802,4801 SOCASTEE BLVD,,MYRTLE BEACH,SC,29588-7245,United States,(843)294-2141,33.683,-78.9953,Monday:8:30AM-5PM; Tuesday:8:30AM-5PM; Wednesday:8:30AM-5PM; Thursday:8:30AM-5PM; Friday:8:30AM-6PM; Saturday:9AM-12PM; Sunday: CLOSED; ,,0
POOLER,8429304,102 W MULBERRY BLVD,,SAVANNAH,GA,31407,United States,(912)330-7258,32.1462,-81.2463,Monday:9AM-5PM; Tuesday:9AM-5PM; Wednesday:9AM-5PM; Thursday:9AM-5PM; Friday:9AM-6PM; Saturday:9AM-1PM; Sun: CLOSED                                           NO DRIVE UP; ,,0
TOWER CITY,2820139,800 W GRAND AVE,,TOWER CITY,PA,17980-9454,United States,(717)647-7121,40.5853,-76.5751,Monday:9AM-3PM; Tuesday:9AM-3PM; Wednesday:9AM-3PM; Thursday:9AM-4PM; Friday:9AM-6PM; Saturday:9AM-12PM; Sunday: CLOSED; ,,0
STEPHENS CROSSR,8043816,2496 HIGHWAY 9 E,,LITTLE RIVER,SC,29566-6822,United States,(843)390-3355,33.8831,-78.6872,Monday:8:30AM-5PM; Tuesday:8:30AM-5PM; Wednesday:8:30AM-5PM; Thursday:8:30AM-5PM; Friday:8:30AM-6PM; Saturday: CLOSED; Sunday: CLOSED; ,,0
76TH AVE NORTH,8043803,505 76TH AVE N,,MYRTLE BEACH,SC,29572-4101,United States,(843)692-0505,33.7471,-78.8204,Monday:8:30AM-5PM; Tuesday:8:30AM-5PM; Wednesday:8:30AM-5PM; Thursday:8:30AM-5PM; Friday:8:30AM-5PM; Saturday: CLOSED; Sunday: CLOSED; ,,0
LINWOOD,2810215,2106 NEW RD STE B1,,LINWOOD,NJ,08221-1048,United States,(609)927-8889,39.3346,-74.5876,Monday:9AM-4PM; Tuesday:9AM-4PM; Wednesday:9AM-4PM; Thursday:9AM-4PM; Friday:9AM-6PM; Saturday:9AM-1PM; Sunday: CLOSED; ,,0
SAYEBROOK,8043811,201 CHARTWELL CT,,MYRTLE BEACH,SC,29588-7273,United States,(843)294-2145,33.6546,-78.9879,Monday:8:30AM-5PM; Tuesday:8:30AM-5PM; Wednesday:8:30AM-5PM; Thursday:8:30AM-5PM; Friday:8:30AM-6PM; Saturday: CLOSED; Sunday: CLOSED; ,,0
BENSALEM,2810904,2460 BRISTOL RD,,BENSALEM,PA,19020-6002,United States,(215)757-5900,40.1318,-74.9255,Monday:9AM-5PM; Tuesday:9AM-5PM; Wednesday:9AM-5PM; Thursday:9AM-5PM; Friday:9AM-6PM; Saturday:9AM-12PM; Sunday: CLOSED; ,,0
CLARKTON,6061508,326 GREEN ST,,CLARKTON,NC,28433-7347,United States,(910)647-4121,34.4897,-78.6608,Mon: 09:00-01:00 03:00-05:00; Tue: 09:00-01:00 03:00-05:00; Wed: 09:00-01:00 03:00-05:00; Thu: 09:00-01:00 03:00-05:00; Fri: 09:00-01:00 03:00-06:00; Saturday: CLOSED; Sunday: CLOSED; ,,0
MOORESTOWN COMM,2810311,100 YOUNG AVE,,MOORESTOWN,NJ,08057-3094,United States,(856)787-0313,39.9713,-74.9176,Monday:9AM-5PM; Tuesday:9AM-5PM; Wednesday:9AM-5PM; Thursday:9AM-5PM; Friday:9AM-6PM; Saturday:9AM-1PM; Sunday: CLOSED; ,,0
HWY 17,8043815,720 HIGHWAY 17 S,,NORTH MYRTLE BEACH,SC,29582-3340,United States,(843)272-1380,33.8239,-78.6861,Monday:8:30AM-5PM; Tuesday:8:30AM-5PM; Wednesday:8:30AM-5PM; Thursday:8:30AM-5PM; Friday:8:30AM-6PM; Saturday:9AM-12PM; Sunday: CLOSED; ,,0
DELRAN,2810314,3104 BRIDGEBORO RD,,DELRAN,NJ,08075-9716,United States,(856)824-1415,40.0148,-74.9343,Monday:9AM-5PM; Tuesday:9AM-5PM; Wednesday:9AM-5PM; Thursday:9AM-5PM; Friday:9AM-6PM; Saturday:9AM-12PM; Sunday: CLOSED; ,,0
WOODHAVEN,2810712,12051 KNIGHTS RD,,PHILADELPHIA,PA,19154-2800,United States,(215)824-0151,40.0858,-74.9725,Monday:9AM-5PM; Tuesday:9AM-5PM; Wednesday:9AM-5PM; Thursday:9AM-5PM; Friday:9AM-6PM; Saturday:9AM-12PM; Sunday: CLOSED; ,,0
NMB MAIN,8043813,521 MAIN ST,,NORTH MYRTLE BEACH,SC,29582-3025,United States,(843)663-1393,33.8247,-78.676,Monday:8:30AM-5PM; Tuesday:8:30AM-5PM; Wednesday:8:30AM-5PM; Thursday:8:30AM-5PM; Friday:8:30AM-6PM; Saturday: CLOSED; Sunday: CLOSED; ,,0
MARLTON,2810310,1011 ROUTE 73 NORTH,,MARLTON,NJ,08053-1516,United States,(856)983-4000,39.9094,-74.9413,Monday:9AM-5PM; Tuesday:9AM-5PM; Wednesday:9AM-5PM; Thursday:9AM-5PM; Friday:9AM-6PM; Saturday:9AM-1PM; Sunday: CLOSED; ,,0
SURFSIDE BEACH,8043812,112 HIGHWAY 17 S,,SURFSIDE BEACH,SC,29575-6069,United States,(843)839-5409,33.612,-78.9824,Monday:8:30AM-5PM; Tuesday:8:30AM-5PM; Wednesday:8:30AM-5PM; Thursday:8:30AM-5PM; Friday:8:30AM-6PM; Saturday: CLOSED; Sunday: CLOSED; ,,0
SPRUCE CREEK,8531308,17801 SE 109TH AVE,,SUMMERFIELD,FL,34491-8967,United States,(352)347-5747,28.9634,-81.9694,Monday:9AM-5PM; Tuesday:9AM-5PM; Wednesday:9AM-5PM; Thursday:9AM-5PM; Friday:9AM-6PM; Saturday: CLOSED; Sunday: CLOSED; ,,0
LADY LAKE,8531318,431 US HIGHWAY 441,,LADY LAKE,FL,32159-3046,United States,(352)750-3311,28.937,-81.9394,Monday:9AM-5PM; Tuesday:9AM-5PM; Wednesday:9AM-5PM; Thursday:9AM-5PM; Friday:9AM-6PM; Saturday: CLOSED; Sunday: CLOSED; ,,0
ATCO AVENUE,2810302,2155 ATCO AVE,,ATCO,NJ,08004-1936,United States,(856)768-1200,39.7691,-74.89,Monday:9AM-5PM; Tuesday:9AM-5PM; Wednesday:9AM-5PM; Thursday:9AM-5PM; Friday:9AM-5PM; Saturday: CLOSED; Sunday: CLOSED; ,,0
LITTLE RIVER,8043814,1702 HIGHWAY 17,,LITTLE RIVER,SC,29566-9299,United States,(843)249-5424,33.8776,-78.6104,Monday:8:30AM-5PM; Tuesday:8:30AM-5PM; Wednesday:8:30AM-5PM; Thursday:8:30AM-5PM; Friday:8:30AM-6PM; Saturday: CLOSED; Sunday: CLOSED; ,,0
THE VILLAGES,8531310,3340 WEDGEWOOD LN,,THE VILLAGES,FL,32162-7178,United States,(352)751-6253,28.9282,-82.0112,Monday:9AM-5PM; Tuesday:9AM-5PM; Wednesday:9AM-5PM; Thursday:9AM-5PM; Friday:9AM-6PM; Saturday: CLOSED; Sunday: CLOSED; ,,0
HAMMONTON,2810216,240 S WHITE HORSE PIKE,,HAMMONTON,NJ,08037-1156,United States,(609)561-6060,39.6409,-74.7816,Monday:9AM-5PM; Tuesday:9AM-5PM; Wednesday:9AM-5PM; Thursday:9AM-5PM; Friday:9AM-6PM; Saturday:9AM-1PM; Sunday: CLOSED; ,,0
CINNAMINSON,2810312,800 ROUTE 130 N,,CINNAMINSON,NJ,08077-3316,United States,(856)303-0100,39.9956,-74.9937,Monday:9AM-5PM; Tuesday:9AM-5PM; Wednesday:9AM-5PM; Thursday:9AM-5PM; Friday:9AM-7PM; Saturday:9AM-1PM; Sunday: CLOSED; ,,0
RED SPRINGS,6060506,608 E 4TH AVE,,RED SPRINGS,NC,28377-1667,United States,(910)843-4113,34.8112,-79.1749,Monday:9AM-5PM; Tuesday:9AM-5PM; Wednesday:9AM-5PM; Thursday:9AM-5PM; Friday:9AM-6PM; Saturday: CLOSED; Sunday: CLOSED; ,,0
SOUTH HANOVER,2800208,1345 BALTIMORE ST,,HANOVER,PA,17331-4410,United States,(717)633-6233,39.7743,-76.9608,Monday:9AM-5PM; Tuesday:9AM-5PM; Wednesday:9AM-5PM; Thursday:9AM-5PM; Friday:9AM-6PM; Saturday:9AM-1PM; Sunday: CLOSED; ,,0
FEASTERVILLE,2810908,1201 BUCK RD,,FEASTERVILLE,PA,19053-2381,United States,(215)364-7096,40.155,-75.0009,Monday:9AM-5PM; Tuesday:9AM-5PM; Wednesday:9AM-5PM; Thursday:9AM-5PM; Friday:9AM-6PM; Saturday:9AM-12PM; Sunday: CLOSED; ,,0
CALABASH,6062007,10027 BEACH DR SW,,CALABASH,NC,28467-2713,United States,(910)579-6238,33.8903,-78.57,Monday:9AM-5PM; Tuesday:9AM-5PM; Wednesday:9AM-5PM; Thursday:9AM-5PM; Friday:9AM-6PM; Saturday: CLOSED; Sunday: CLOSED; ,,0
WHITE HORSE PIK,2810309,249 WHITE HORSE PIKE,,ATCO,NJ,08004-2231,United States,(856)767-3886,39.7729,-74.9032,Monday:9AM-5PM; Tuesday:9AM-5PM; Wednesday:9AM-5PM; Thursday:9AM-5PM; Friday:9AM-7PM; Saturday:9AM-1PM; Sunday: CLOSED; ,,0
MURRELLS INLET,8043805,656 SUNNYSIDE AVE,,MURRELLS INLET,SC,29576-6101,United States,(843)652-5000,33.5671,-79.0338,Monday:8:30AM-5PM; Tuesday:8:30AM-5PM; Wednesday:8:30AM-5PM; Thursday:8:30AM-5PM; Friday:8:30AM-6PM; Saturday:9AM-12PM; Sunday: CLOSED; ,,0
BELLEVUE AVENUE,2810214,337 BELLEVUE AVE,,HAMMONTON,NJ,08037-1928,United States,(609)561-6000,39.6382,-74.8007,Monday:9AM-5PM; Tuesday:9AM-5PM; Wednesday:9AM-5PM; Thursday:9AM-5PM; Friday:9AM-6PM; Saturday:9AM-1PM; Sunday: CLOSED; ,,0
CHERRY HILL,2810305,901 KINGS HWY N,,CHERRY HILL,NJ,08034-1514,United States,(856)667-5555,39.9233,-74.9999,Monday:9AM-5PM; Tuesday:9AM-5PM; Wednesday:9AM-5PM; Thursday:9AM-5PM; Friday:9AM-7PM; Saturday:9AM-1PM; Sunday: CLOSED; ,,0
SAINT PAULS,6060507,108 E BROAD ST,,SAINT PAULS,NC,28384-1610,United States,(910)865-5122,34.8065,-78.9705,Monday:9AM-5PM; Tuesday:9AM-5PM; Wednesday:9AM-5PM; Thursday:9AM-5PM; Friday:9AM-6PM; Saturday: CLOSED; Sunday: CLOSED; ,,0
NEW HOPE,2810911,6444 LOWER YORK RD,,NEW HOPE,PA,18938-5696,United States,(215)862-0416,40.3574,-74.9835,Monday:9AM-5PM; Tuesday:9AM-5PM; Wednesday:9AM-5PM; Thursday:9AM-5PM; Friday:9AM-6PM; Saturday:9AM-12PM; Sunday: CLOSED; ,,0
ELIZABETHTOWN,6061509,215 W BROAD ST,,ELIZABETHTOWN,NC,28337-9304,United States,(910)862-4058,34.6292,-78.609,Monday:9AM-5PM; Tuesday:9AM-5PM; Wednesday:9AM-5PM; Thursday:9AM-5PM; Friday:9AM-6PM; Saturday: CLOSED; Sunday: CLOSED; ,,0
PENNSAUKEN,2810308,7350 MAPLE AVE,,PENNSAUKEN,NJ,08109-2956,United States,(856)665-8000,39.9517,-75.0323,Monday:9AM-5PM; Tuesday:9AM-5PM; Wednesday:9AM-5PM; Thursday:9AM-5PM; Friday:9AM-7PM; Saturday:9AM-1PM; Sunday: CLOSED; ,,0
SUNSET BEACH,6062010,1625 SEASIDE RD,,SUNSET BEACH,NC,28468,United States,(910)579-8160,33.9,-78.4876,Monday:9AM-5PM; Tuesday:9AM-5PM; Wednesday:9AM-5PM; Thursday:9AM-5PM; Friday:9AM-6PM; Saturday: CLOSED; Sunday: CLOSED; ,,0
DRUMS,2820226,24 S HUNTER HWY,,DRUMS,PA,18222-2417,United States,(570)788-6020,41.0199,-75.9635,Monday:9AM-5PM; Tuesday:9AM-5PM; Wednesday:9AM-5PM; Thursday:9AM-5PM; Friday:9AM-6PM; Saturday:9AM-12PM; Sunday: CLOSED; ,,0
